{
  "version": 0.6,
  "generator": "Overpass API 0.7.62.5 1bd436f1",
  "osm3s": {
    "timestamp_osm_base": "2025-05-26T20:10:56Z",
    "timestamp_areas_base": "2025-05-20T05:45:31Z",
    "copyright": "The data included in this document is from www.openstreetmap.org. The data is made available under ODbL."
  },
  "elements": [

{
  "type": "node",
  "id": 481837735,
  "lat": 20.9209274,
  "lon": 106.0948577,
  "tags": {
    "amenity": "hospital",
    "highway": "emergency_access_point",
    "name": "Trạm y tế"
  }
},
{
  "type": "node",
  "id": 729405654,
  "lat": 16.0681938,
  "lon": 108.2013645,
  "tags": {
    "amenity": "hospital",
    "healthcare": "hospital",
    "name": "Cong Ty CP Benh Vien Da Khoa Hoa Xuan"
  }
},
{
  "type": "node",
  "id": 729405656,
  "lat": 16.0541960,
  "lon": 108.2190335,
  "tags": {
    "amenity": "hospital",
    "healthcare": "hospital",
    "name": "Benh Vien Y Hoc Co Truyen Tp.Da Nang"
  }
},
{
  "type": "node",
  "id": 729405657,
  "lat": 16.0569875,
  "lon": 108.2182556,
  "tags": {
    "amenity": "hospital",
    "healthcare": "hospital",
    "name": "Benh Vien Phu Nu Tp.Da Nang"
  }
},
{
  "type": "node",
  "id": 729405659,
  "lat": 16.0536495,
  "lon": 108.2089108,
  "tags": {
    "amenity": "hospital",
    "healthcare": "hospital",
    "name": "Trung Tam Bac Si Gia Dinh Da Nang"
  }
},
{
  "type": "node",
  "id": 729405661,
  "lat": 16.0541328,
  "lon": 108.2330670,
  "tags": {
    "amenity": "hospital",
    "name": "Benh Vien Ngoai Khoa Nguyen Van Thai"
  }
},
{
  "type": "node",
  "id": 729405662,
  "lat": 16.0594010,
  "lon": 108.2098753,
  "tags": {
    "addr:street": "Nguyễn Văn Linh",
    "amenity": "hospital",
    "healthcare": "hospital",
    "name": "Hoan My General Hospital"
  }
},
{
  "type": "node",
  "id": 729405667,
  "lat": 16.0713797,
  "lon": 108.2001187,
  "tags": {
    "addr:housenumber": "376",
    "addr:street": "Đường Trần Cao Vân",
    "amenity": "hospital",
    "healthcare": "hospital",
    "name": "Benh Vien Da Khoa Binh Dan"
  }
},
{
  "type": "node",
  "id": 729405671,
  "lat": 16.0686754,
  "lon": 108.2189349,
  "tags": {
    "amenity": "hospital",
    "healthcare": "hospital",
    "name": "Benh Vien Tu Binh Dan"
  }
},
{
  "type": "node",
  "id": 729405675,
  "lat": 16.0824806,
  "lon": 108.2205999,
  "tags": {
    "amenity": "hospital",
    "name": "Trung Tam Phuc Hoi Co Nhi Suy Dinh Duong Da Nang"
  }
},
{
  "type": "node",
  "id": 729405677,
  "lat": 16.0249226,
  "lon": 108.2142699,
  "tags": {
    "amenity": "hospital",
    "name": "Benh Vien Y Hoc Co Truyen Tp Da Nang",
    "opening_hours": "Mo-Su 07:00-11:30,13:00-16:30",
    "phone": "+842363679555",
    "website": "https://bvtamtridanang.com.vn/"
  }
},
{
  "type": "node",
  "id": 860696621,
  "lat": 10.7929834,
  "lon": 106.6704335,
  "tags": {
    "amenity": "hospital"
  }
},
{
  "type": "node",
  "id": 880585756,
  "lat": 21.1071523,
  "lon": 106.3974123,
  "tags": {
    "amenity": "hospital",
    "healthcare": "hospital",
    "name": "TTYT Cộng Đồng"
  }
},
{
  "type": "node",
  "id": 947763632,
  "lat": 10.7642680,
  "lon": 106.7070210,
  "tags": {
    "amenity": "hospital",
    "healthcare": "hospital",
    "name": "Trung Tâm Y Tế Dự Phòng - Phòng Khám Tiêm Phòng"
  }
},
{
  "type": "node",
  "id": 980135499,
  "lat": 10.5371749,
  "lon": 106.4121969,
  "tags": {
    "amenity": "hospital",
    "name": "Phòng Chẩn Trị Y Học Cổ Truyền Tư Nhân"
  }
},
{
  "type": "node",
  "id": 980136874,
  "lat": 10.5392545,
  "lon": 106.4194209,
  "tags": {
    "amenity": "hospital",
    "name": "Bệnh Viện Đa Khoa Long An - Khoa Nội A1",
    "name:en": "Long An General Practice Hospital - Internal Medicine Faculty A1"
  }
},
{
  "type": "node",
  "id": 980139083,
  "lat": 10.5448297,
  "lon": 106.3882369,
  "tags": {
    "amenity": "hospital",
    "name": "Điểm Sơ Cấp Cứu"
  }
},
{
  "type": "node",
  "id": 1150943082,
  "lat": 11.9398477,
  "lon": 108.4329545,
  "tags": {
    "amenity": "hospital",
    "name": "Phòng Khám Đa Khoa Trung Tâm Y Tế Đà Lạt"
  }
},
{
  "type": "node",
  "id": 1274146574,
  "lat": 10.2885668,
  "lon": 105.7708256,
  "tags": {
    "amenity": "hospital",
    "name": "Bệnh viện đa khoa Sa Đéc"
  }
},
{
  "type": "node",
  "id": 1275615338,
  "lat": 11.5478023,
  "lon": 106.0016526,
  "tags": {
    "amenity": "hospital",
    "name": "Trạm y tế Tân Biên"
  }
},
{
  "type": "node",
  "id": 1433192072,
  "lat": 16.2367913,
  "lon": 108.0786590,
  "tags": {
    "amenity": "hospital",
    "emergency": "no",
    "name": "Lang Co Hospital"
  }
},
{
  "type": "node",
  "id": 1644008063,
  "lat": 13.1048698,
  "lon": 109.3116773,
  "tags": {
    "amenity": "hospital",
    "name": "Bệnh Viên Y học Cổ Truyền tỉnh Phú Yên"
  }
},
{
  "type": "node",
  "id": 1727558698,
  "lat": 12.6504798,
  "lon": 108.0230837,
  "tags": {
    "amenity": "hospital",
    "name": "Bệnh viện Đại học Tây Nguyên"
  }
},
{
  "type": "node",
  "id": 1736286846,
  "lat": 20.0987549,
  "lon": 106.1047138,
  "tags": {
    "amenity": "hospital",
    "name": "Trạm Y Tế Xã Quang Thiện"
  }
},
{
  "type": "node",
  "id": 1756064227,
  "lat": 22.4861752,
  "lon": 104.2486435,
  "tags": {
    "amenity": "hospital",
    "name": "Trạm y tế xã Nậm Mòn"
  }
},
{
  "type": "node",
  "id": 1777707116,
  "lat": 10.0296653,
  "lon": 105.7762811,
  "tags": {
    "amenity": "hospital",
    "name": "Hội Đông Y"
  }
},
{
  "type": "node",
  "id": 1781217140,
  "lat": 10.0306927,
  "lon": 105.7731243,
  "tags": {
    "amenity": "hospital",
    "name": "Trạm Y tế P. Xuân Khánh"
  }
},
{
  "type": "node",
  "id": 1781231926,
  "lat": 10.0223343,
  "lon": 105.7659144,
  "tags": {
    "amenity": "hospital",
    "name": "Nha khoa Hưng Lợi"
  }
},
{
  "type": "node",
  "id": 1781250863,
  "lat": 10.0210749,
  "lon": 105.7699058,
  "tags": {
    "amenity": "hospital",
    "healthcare": "clinic",
    "name": "Trạm y tế Hưng Lợi"
  }
},
{
  "type": "node",
  "id": 1783222953,
  "lat": 10.0440487,
  "lon": 105.7816809,
  "tags": {
    "amenity": "hospital",
    "name": "Trung tâm y tế dự phòng Cần Thơ"
  }
},
{
  "type": "node",
  "id": 1783223376,
  "lat": 10.0437641,
  "lon": 105.7815365,
  "tags": {
    "amenity": "hospital",
    "name": "TT Nha khoa Mỹ Thuật Cao"
  }
},
{
  "type": "node",
  "id": 1783227734,
  "lat": 10.0402647,
  "lon": 105.7853310,
  "tags": {
    "amenity": "hospital",
    "name": "Trạm Y tế"
  }
},
{
  "type": "node",
  "id": 1783266159,
  "lat": 10.0451555,
  "lon": 105.7826643,
  "tags": {
    "amenity": "hospital",
    "name": "Trạm Y tế Cái Khế"
  }
},
{
  "type": "node",
  "id": 1793935354,
  "lat": 10.0303545,
  "lon": 105.7513901,
  "tags": {
    "amenity": "hospital",
    "name": "Bệnh viện phụ sản quốc tế Phương Châu"
  }
},
{
  "type": "node",
  "id": 1798920830,
  "lat": 10.3751746,
  "lon": 105.4416699,
  "tags": {
    "amenity": "hospital",
    "name": "Bệnh Viện Bình Dân"
  }
},
{
  "type": "node",
  "id": 1798922803,
  "lat": 10.3655131,
  "lon": 105.4435206,
  "tags": {
    "amenity": "hospital",
    "name": "Trạm Y tế Mỹ Phước"
  }
},
{
  "type": "node",
  "id": 1798925054,
  "lat": 10.3552363,
  "lon": 105.4584414,
  "tags": {
    "amenity": "hospital",
    "emergency": "yes",
    "name": "Bệnh viện Hạnh Phúc",
    "operator": "tư nhân"
  }
},
{
  "type": "node",
  "id": 1798925058,
  "lat": 10.3460092,
  "lon": 105.4666627,
  "tags": {
    "amenity": "hospital",
    "name": "Trạm Y tế phường Mỹ Thạnh"
  }
},
{
  "type": "node",
  "id": 1798925073,
  "lat": 10.3458084,
  "lon": 105.4667325,
  "tags": {
    "amenity": "hospital",
    "name": "Trạm Y tế phường Mỹ Thới"
  }
},
{
  "type": "node",
  "id": 1811111128,
  "lat": 9.6340810,
  "lon": 105.8114188,
  "tags": {
    "amenity": "hospital",
    "name": "Bệnh viện Mỹ Tú"
  }
},
{
  "type": "node",
  "id": 1926545806,
  "lat": 21.1676281,
  "lon": 105.9301084,
  "tags": {
    "amenity": "hospital",
    "name": "Trạm y tế Văn Môn"
  }
},
{
  "type": "node",
  "id": 2147654917,
  "lat": 16.1016726,
  "lon": 108.2486987,
  "tags": {
    "amenity": "hospital",
    "emergency": "no"
  }
},
{
  "type": "node",
  "id": 2262455096,
  "lat": 10.3503097,
  "lon": 107.0714235,
  "tags": {
    "amenity": "hospital",
    "name": "Raffles Internation Health Clinic"
  }
},
{
  "type": "node",
  "id": 2325759006,
  "lat": 10.1615278,
  "lon": 104.6142991,
  "tags": {
    "amenity": "hospital",
    "emergency": "yes",
    "name": "Trạm Y tế Bình An"
  }
},
{
  "type": "node",
  "id": 2326845867,
  "lat": 10.3040973,
  "lon": 104.5335152,
  "tags": {
    "amenity": "hospital",
    "name": "Trạm y tế Dương Hòa"
  }
},
{
  "type": "node",
  "id": 2341484948,
  "lat": 10.1227951,
  "lon": 105.5267268,
  "tags": {
    "amenity": "hospital",
    "name": "trạm y tế thới hưng"
  }
},
{
  "type": "node",
  "id": 2341601957,
  "lat": 10.0668613,
  "lon": 105.5472852,
  "tags": {
    "amenity": "hospital",
    "name": "Bệnh viện huyện Thới Lai"
  }
},
{
  "type": "node",
  "id": 2341745287,
  "lat": 10.0840697,
  "lon": 105.5476020,
  "tags": {
    "amenity": "hospital",
    "name": "trạm y tế xã xuân thắng"
  }
},
{
  "type": "node",
  "id": 2341791280,
  "lat": 10.1876873,
  "lon": 105.5506934,
  "tags": {
    "amenity": "hospital",
    "name": "trạm y tế Tân Hưng"
  }
},
{
  "type": "node",
  "id": 2407474136,
  "lat": 13.0969173,
  "lon": 109.3148522,
  "tags": {
    "amenity": "hospital",
    "name": "Bênh viện Quân Y"
  }
},
{
  "type": "node",
  "id": 2482100741,
  "lat": 20.8303749,
  "lon": 106.6988873,
  "tags": {
    "amenity": "hospital",
    "name": "Phòng Khám Đa Khoa"
  }
},
{
  "type": "node",
  "id": 2496890014,
  "lat": 20.8543991,
  "lon": 106.6741672,
  "tags": {
    "addr:housenumber": "187",
    "addr:street": "Nguyễn Đức Cảnh",
    "amenity": "hospital",
    "healthcare": "hospital",
    "name": "Bênh viện Y học Cổ truyền"
  }
},
{
  "type": "node",
  "id": 2497017036,
  "lat": 20.8478209,
  "lon": 106.6716269,
  "tags": {
    "amenity": "hospital",
    "healthcare": "hospital",
    "name": "Nha khoa quốc tế"
  }
},
{
  "type": "node",
  "id": 2679753974,
  "lat": 10.7998479,
  "lon": 106.6675233,
  "tags": {
    "amenity": "hospital",
    "healthcare": "hospital",
    "name": "Bệnh viện Phụ sản Mekong"
  }
},
{
  "type": "node",
  "id": 2776795743,
  "lat": 10.8332833,
  "lon": 106.7799993,
  "tags": {
    "amenity": "hospital",
    "healthcare": "hospital",
    "name": "Trung tâm Y tế Dự phòng Quận 9"
  }
},
{
  "type": "node",
  "id": 2874225019,
  "lat": 20.9542742,
  "lon": 105.8384237,
  "tags": {
    "addr:city": "Hà Nội",
    "addr:country": "VN",
    "addr:housenumber": "60",
    "addr:street": "Tựu Liệt, Tam Hiệp, Thanh Trì",
    "amenity": "hospital",
    "ele": "4",
    "emergency": "yes",
    "healthcare": "hospital",
    "name": "Bệnh Viện Đa Khoa Thăng Long",
    "phone": "+84 4 3687 3058"
  }
},
{
  "type": "node",
  "id": 2930719503,
  "lat": 10.7795758,
  "lon": 106.6965213,
  "tags": {
    "addr:housenumber": "8",
    "addr:street": "Alexandre de Rhodes",
    "amenity": "hospital",
    "healthcare": "hospital",
    "name": "Columbia Asia Saigon",
    "operator": "Columbia Asia",
    "operator:type": "private",
    "operator:wikidata": "Q5149612"
  }
},
{
  "type": "node",
  "id": 2993872984,
  "lat": 10.3785311,
  "lon": 105.4348273,
  "tags": {
    "amenity": "hospital",
    "name": "Bệnh viện phụ sản Vuông Tròn"
  }
},
{
  "type": "node",
  "id": 3098834445,
  "lat": 10.7625280,
  "lon": 106.6701859,
  "tags": {
    "amenity": "hospital",
    "healthcare": "hospital",
    "name": "Trung Tâm Chẩn Đoán Y Khoa Medic - BV Hòa Hảo"
  }
},
{
  "type": "node",
  "id": 3217904580,
  "lat": 10.9034999,
  "lon": 106.7102737,
  "tags": {
    "amenity": "hospital",
    "name": "Bệnh viện Đa khoa Quốc Tế Miền Đông"
  }
},
{
  "type": "node",
  "id": 3724784411,
  "lat": 20.7358759,
  "lon": 106.7113280,
  "tags": {
    "amenity": "hospital",
    "name": "Trạm y tế xã Tân Phong"
  }
},
{
  "type": "node",
  "id": 3736864091,
  "lat": 10.2477654,
  "lon": 105.4129250,
  "tags": {
    "amenity": "hospital",
    "name": "Trạm Y tế xã Thạnh Mỹ"
  }
},
{
  "type": "node",
  "id": 3736870290,
  "lat": 10.2363471,
  "lon": 105.4023571,
  "tags": {
    "amenity": "hospital",
    "name": "Bệnh viện Đa khoa huyện Vĩnh Thạnh"
  }
},
{
  "type": "node",
  "id": 3752331075,
  "lat": 21.0492003,
  "lon": 105.8400348,
  "tags": {
    "addr:city": "Hanoi",
    "addr:country": "VN",
    "addr:district": "Quận Ba Đình",
    "addr:housenumber": "32",
    "addr:street": "Phố Đức Chính",
    "addr:subdistrict": "Phường Trúc Bạch",
    "amenity": "hospital",
    "healthcare": "hospital",
    "name": "Paris Miki Vietnam",
    "operator": "Paris Miki Vietnam",
    "website": "https://www.paris-miki.vn/"
  }
},
{
  "type": "node",
  "id": 3763495713,
  "lat": 10.5431087,
  "lon": 105.5374986,
  "tags": {
    "amenity": "hospital",
    "name": "Trạm Y tế Bình Thành"
  }
},
{
  "type": "node",
  "id": 3763545358,
  "lat": 10.4620627,
  "lon": 105.6300593,
  "tags": {
    "amenity": "hospital",
    "name": "Bác sĩ Thanh Tú - Tim Mạch"
  }
},
{
  "type": "node",
  "id": 3763545361,
  "lat": 10.4619383,
  "lon": 105.6279102,
  "tags": {
    "amenity": "hospital",
    "name": "Trạm Y tế Hòa Thuận"
  }
},
{
  "type": "node",
  "id": 3766844280,
  "lat": 10.5401518,
  "lon": 105.5403949,
  "tags": {
    "amenity": "hospital",
    "name": "Bác sĩ Cường"
  }
},
{
  "type": "node",
  "id": 3776005963,
  "lat": 10.4299931,
  "lon": 105.6341590,
  "tags": {
    "amenity": "hospital",
    "name": "TYT Phường 6"
  }
},
{
  "type": "node",
  "id": 3776017451,
  "lat": 10.5207100,
  "lon": 105.8411882,
  "tags": {
    "amenity": "hospital",
    "name": "BV THáp Mười"
  }
},
{
  "type": "node",
  "id": 3840181829,
  "lat": 12.6909493,
  "lon": 108.0303902,
  "tags": {
    "amenity": "hospital"
  }
},
{
  "type": "node",
  "id": 3945382405,
  "lat": 21.2461978,
  "lon": 105.5182179,
  "tags": {
    "addr:district": "Vĩnh Tường",
    "addr:postcode": "280000",
    "addr:province": "Vĩnh Phúc",
    "addr:subdistrict": "Bình Dương",
    "amenity": "hospital",
    "name": "Trạm y tế Xã Bình Dương"
  }
},
{
  "type": "node",
  "id": 4040096163,
  "lat": 10.3365974,
  "lon": 103.8565939,
  "tags": {
    "amenity": "hospital",
    "name": "Vinmec"
  }
},
{
  "type": "node",
  "id": 4140084692,
  "lat": 21.6015817,
  "lon": 105.8240667,
  "tags": {
    "amenity": "hospital",
    "healthcare": "hospital",
    "name": "Bệnh viện Mắt Thái Nguyên"
  }
},
{
  "type": "node",
  "id": 4148736350,
  "lat": 19.9799057,
  "lon": 105.9841948,
  "tags": {
    "amenity": "hospital",
    "name": "Trạm y tế xã Nga Thủy"
  }
},
{
  "type": "node",
  "id": 4152538490,
  "lat": 11.0253391,
  "lon": 106.6312288,
  "tags": {
    "amenity": "hospital",
    "name": "Thuốc Nam Thầy Thanh"
  }
},
{
  "type": "node",
  "id": 4177484489,
  "lat": 10.3469598,
  "lon": 107.0843401,
  "tags": {
    "addr:housenumber": "117",
    "addr:street": "Nam Kỳ Khởi Nghĩa",
    "amenity": "hospital",
    "name": "Phòng khám BS Phước",
    "opening_hours": "Mo-Su 17:30-20:00"
  }
},
{
  "type": "node",
  "id": 4185701590,
  "lat": 10.3756299,
  "lon": 106.3259999,
  "tags": {
    "amenity": "hospital"
  }
},
{
  "type": "node",
  "id": 4194566940,
  "lat": 10.7476440,
  "lon": 106.6143869,
  "tags": {
    "amenity": "hospital",
    "healthcare": "hospital",
    "name": "Bệnh Viện Quốc Tế Minh Anh"
  }
},
{
  "type": "node",
  "id": 4265539889,
  "lat": 10.7713711,
  "lon": 106.6909391,
  "tags": {
    "addr:housenumber": "100",
    "addr:street": "Lê Thị Riêng",
    "amenity": "hospital",
    "healthcare": "hospital",
    "name": "Bệnh Viện Mắt Sài Gòn"
  }
},
{
  "type": "node",
  "id": 4318043190,
  "lat": 10.5579943,
  "lon": 105.2854773,
  "tags": {
    "amenity": "hospital"
  }
},
{
  "type": "node",
  "id": 4337135793,
  "lat": 20.8370133,
  "lon": 106.6656930,
  "tags": {
    "amenity": "hospital",
    "name": "Bệnh Viện giao thông hải phòng"
  }
},
{
  "type": "node",
  "id": 4351238192,
  "lat": 10.7603786,
  "lon": 106.6798139,
  "tags": {
    "amenity": "hospital",
    "healthcare": "hospital",
    "name": "Phòng Thí Nghiệm - Kiểm Tra Sức Khoẻ"
  }
},
{
  "type": "node",
  "id": 4354948495,
  "lat": 10.9298113,
  "lon": 106.6855964,
  "tags": {
    "addr:housenumber": "320 số 3",
    "addr:street": "hát",
    "amenity": "hospital",
    "name": "HTV",
    "name:en": "tph"
  }
},
{
  "type": "node",
  "id": 4362547790,
  "lat": 10.0130976,
  "lon": 105.7570655,
  "tags": {
    "addr:street": "3 Tháng 2",
    "amenity": "hospital",
    "name": "Bệnh Viện Tâm Thần tp. Cần thơ",
    "name:en": "MENTAL HOSPITAL",
    "name:vi": "Bệnh Viện Tâm Thần tp. Cần thơ"
  }
},
{
  "type": "node",
  "id": 4490398490,
  "lat": 11.3084036,
  "lon": 106.1077786,
  "tags": {
    "amenity": "hospital",
    "name": "bien vien le ngoc tung",
    "opening_hours": "24/7"
  }
},
{
  "type": "node",
  "id": 4513147189,
  "lat": 10.7774803,
  "lon": 106.6432036,
  "tags": {
    "amenity": "hospital"
  }
},
{
  "type": "node",
  "id": 4548152699,
  "lat": 14.9885347,
  "lon": 108.8767086,
  "tags": {
    "addr:street": "Quốc lộ 1A",
    "amenity": "hospital",
    "name": "Bệnh viện đa khoa huyện mộ đức",
    "name:vi": "Bệnh viện đa khoa huyện mộ đức"
  }
},
{
  "type": "node",
  "id": 4552272401,
  "lat": 12.6277006,
  "lon": 108.1260920,
  "tags": {
    "amenity": "hospital",
    "name": "Bệnh viện Huyện Cưkuin",
    "name:vi": "Bệnh viện Việt Đức"
  }
},
{
  "type": "node",
  "id": 4595605191,
  "lat": 11.2287571,
  "lon": 108.7278198,
  "tags": {
    "addr:street": "Hải Thượng Lãn ông nối dài",
    "amenity": "hospital",
    "name": "Bệnh Viện Tuy Phong",
    "name:vi": "Bệnh Viện Tuy Phong"
  }
},
{
  "type": "node",
  "id": 4613806894,
  "lat": 10.7999684,
  "lon": 106.6415956,
  "tags": {
    "addr:postcode": "10000",
    "addr:street": "Hẻm 4 Núi Thành",
    "amenity": "hospital",
    "healthcare": "hospital",
    "name": "Bệnh Viện Đa Khoa Mỹ Đức",
    "name:en": "My Duc Hospital",
    "phone": "0838100290"
  }
},
{
  "type": "node",
  "id": 4655280590,
  "lat": 13.7927447,
  "lon": 109.2045626,
  "tags": {
    "addr:street": "Điện Biên Phủ",
    "amenity": "hospital",
    "name": "Trung Tam y te du phong tinh binh dinh (Vaccination center)",
    "name:en": "Preventive medical center of binh dinh province (Vaccination center )",
    "name:vi": "Trung Tam y te du phong tinh binh dinh (Vaccination center)"
  }
},
{
  "type": "node",
  "id": 4663069891,
  "lat": 20.6739919,
  "lon": 105.3161392,
  "tags": {
    "amenity": "hospital",
    "name": "bệnh viện quân y 108",
    "name:vi": "bệnh viện quân y 108"
  }
},
{
  "type": "node",
  "id": 4698549590,
  "lat": 10.7255507,
  "lon": 106.7339143,
  "tags": {
    "addr:housenumber": "968",
    "addr:street": "Huỳnh Tấn Phát",
    "amenity": "hospital",
    "healthcare": "hospital",
    "name": "Nhà Thuốc Thái Thanh"
  }
},
{
  "type": "node",
  "id": 4732061922,
  "lat": 15.8843233,
  "lon": 108.3280358,
  "tags": {
    "amenity": "hospital",
    "name": "Pacific Hospital",
    "name:vi": "Pacific Hospital"
  }
},
{
  "type": "node",
  "id": 4739879024,
  "lat": 22.7849984,
  "lon": 104.5824129,
  "tags": {
    "amenity": "hospital",
    "internet_access": "wlan",
    "name": "Trạm y tế xã Bản Phùng",
    "name:en": "Bản Phùng Medical station",
    "name:vi": "Trạm y tế xã Bản Phùng"
  }
},
{
  "type": "node",
  "id": 4742435371,
  "lat": 19.2479090,
  "lon": 105.7071360,
  "tags": {
    "addr:city": "Hoàng Mai",
    "addr:district": "Phường Quỳnh Thiện",
    "addr:postcode": "465240",
    "addr:province": "Nghệ An",
    "addr:subdistrict": "Khối Thịnh Mỹ",
    "amenity": "hospital",
    "description": "Với cả tấm lòng!",
    "email": "lienhe@quangkhoi.org",
    "emergency": "yes",
    "healthcare": "hospital",
    "healthcare:speciality": "hospital",
    "internet_access": "wlan",
    "internet_access:ssid": "QUANGKHOI GUEST 2.4Ghz",
    "level": "6",
    "name": "Bệnh Viện Đa Khoa Quang Khởi",
    "name:en": "Quang Khoi General Hospital",
    "name:vi": "Bệnh Viện Đa Khoa Quang Khởi",
    "operator": "Công ty TNHH Y tế Hoàng Mai",
    "phone": "+842383666666",
    "start_date": "06/07/2018",
    "website": "http://quangkhoi.org"
  }
},
{
  "type": "node",
  "id": 4748730920,
  "lat": 22.3976707,
  "lon": 103.8405279,
  "tags": {
    "amenity": "hospital"
  }
},
{
  "type": "node",
  "id": 4748732217,
  "lat": 22.3661486,
  "lon": 103.8570350,
  "tags": {
    "amenity": "hospital"
  }
},
{
  "type": "node",
  "id": 4773142751,
  "lat": 22.6567563,
  "lon": 106.2622083,
  "tags": {
    "amenity": "hospital",
    "healthcare": "hospital",
    "name": "Khu Điều Trị",
    "name:vi": "Khu Điều Trị",
    "phone": "0263 607 736"
  }
},
{
  "type": "node",
  "id": 4778473921,
  "lat": 22.2563829,
  "lon": 106.4753374,
  "tags": {
    "amenity": "hospital",
    "name": "Mái ấm tình thương",
    "name:vi": "Mái ấm tình thương"
  }
},
{
  "type": "node",
  "id": 4789461522,
  "lat": 20.6469848,
  "lon": 106.0573008,
  "tags": {
    "amenity": "hospital",
    "name": "Trạm bảo hành Kangaroo",
    "name:vi": "Trạm bảo hành Kangaroo"
  }
},
{
  "type": "node",
  "id": 4792673421,
  "lat": 10.9321621,
  "lon": 108.0978252,
  "tags": {
    "addr:street": "Trần Phú",
    "amenity": "hospital",
    "healthcare": "hospital",
    "name": "An Phước"
  }
},
{
  "type": "node",
  "id": 4801183022,
  "lat": 21.7078923,
  "lon": 104.9960015,
  "tags": {
    "amenity": "hospital"
  }
},
{
  "type": "node",
  "id": 4841805022,
  "lat": 19.5798227,
  "lon": 105.7565280,
  "tags": {
    "amenity": "hospital"
  }
},
{
  "type": "node",
  "id": 4841841221,
  "lat": 19.5770364,
  "lon": 105.7542099,
  "tags": {
    "amenity": "hospital"
  }
},
{
  "type": "node",
  "id": 4843374631,
  "lat": 12.5091700,
  "lon": 109.1372850,
  "tags": {
    "amenity": "hospital",
    "name": "Bệnh viện Đa Khoa KV Ninh Hoà",
    "name:vi": "Bệnh viện Đa Khoa KV Ninh Hoà"
  }
},
{
  "type": "node",
  "id": 4869521424,
  "lat": 10.9324448,
  "lon": 108.0978890,
  "tags": {
    "amenity": "hospital",
    "healthcare": "hospital",
    "name": "An Phước",
    "name:vi": "An Phước"
  }
},
{
  "type": "node",
  "id": 4875980023,
  "lat": 16.0387848,
  "lon": 108.2112894,
  "tags": {
    "addr:street": "30 Tháng 4",
    "amenity": "hospital",
    "internet_access": "wlan",
    "name": "bệnh viện quốc tế VINMEC"
  }
},
{
  "type": "node",
  "id": 4886715161,
  "lat": 21.0933795,
  "lon": 105.8521434,
  "tags": {
    "addr:city": "Hà Nội",
    "addr:district": "Đông Anh",
    "addr:province": "Hà Nội",
    "addr:subdistrict": "Xuân Canh",
    "amenity": "hospital",
    "name": "Trạm y tế xã Xuân Canh",
    "operator": "Xã Xuân Canh"
  }
},
{
  "type": "node",
  "id": 4916050621,
  "lat": 10.7845666,
  "lon": 106.7688866,
  "tags": {
    "addr:housenumber": "77a",
    "addr:street": "Lê Văn Thịnh",
    "amenity": "hospital",
    "internet_access": "wlan"
  }
},
{
  "type": "node",
  "id": 4927946400,
  "lat": 10.7823214,
  "lon": 106.6729782,
  "tags": {
    "amenity": "hospital",
    "healthcare": "hospital",
    "name": "Trạm Y Tế Dự Phòng"
  }
},
{
  "type": "node",
  "id": 4950612021,
  "lat": 10.6370445,
  "lon": 105.2023123,
  "tags": {
    "amenity": "hospital",
    "name": "ca xa Mỹ phú",
    "name:vi": "ca xa Mỹ phú"
  }
},
{
  "type": "node",
  "id": 4981926121,
  "lat": 10.7756389,
  "lon": 106.6557898,
  "tags": {
    "addr:street": "Số 6, Thiên Phước, P9, Q. Tân Bình",
    "amenity": "hospital",
    "healthcare": "hospital",
    "name": "Trung Tâm Hiến Múa Nhân Đạo",
    "phone": "38658509"
  }
},
{
  "type": "node",
  "id": 4991516821,
  "lat": 10.7916660,
  "lon": 106.5972767,
  "tags": {
    "addr:housenumber": "1014/88/1",
    "addr:street": "Tân Kỳ Tân Quý",
    "amenity": "hospital",
    "healthcare": "hospital",
    "internet_access": "wlan",
    "name": "Trung Tâm Y Tế Quận Bình Tân",
    "name:en": "Trung tam Y te quan Binh Tan"
  }
},
{
  "type": "node",
  "id": 5047146521,
  "lat": 10.9176855,
  "lon": 108.0847481,
  "tags": {
    "addr:housenumber": "69",
    "addr:street": "Trần Quý Cáp",
    "amenity": "hospital",
    "healthcare": "hospital",
    "name": "BV Binh Thuan"
  }
},
{
  "type": "node",
  "id": 5057594021,
  "lat": 22.3460908,
  "lon": 103.8571672,
  "tags": {
    "amenity": "hospital",
    "healthcare": "hospital",
    "name:en": "ER"
  }
},
{
  "type": "node",
  "id": 5061880921,
  "lat": 10.0763554,
  "lon": 105.7489456,
  "tags": {
    "addr:street": "Lê Hồng Phong",
    "amenity": "hospital",
    "name": "Đa khoa tw",
    "name:vi": "Đa khoa tw"
  }
},
{
  "type": "node",
  "id": 5062520223,
  "lat": 10.0197355,
  "lon": 105.7687082,
  "tags": {
    "addr:housenumber": "383",
    "addr:street": "Đường 30 Tháng 4",
    "amenity": "hospital",
    "email": "daicatgaosach@gmail.com",
    "internet_access": "wlan",
    "name": "Phòng Khám YHCT Gia Đức",
    "name:vi": "Phòng Khám YHCT Gia Đức",
    "opening_hours": "Mo-Sa 07:00-19:00",
    "phone": "0981377989"
  }
},
{
  "type": "node",
  "id": 5129911021,
  "lat": 12.2530712,
  "lon": 109.1776875,
  "tags": {
    "amenity": "hospital"
  }
},
{
  "type": "node",
  "id": 5148916321,
  "lat": 10.6021742,
  "lon": 105.2195665,
  "tags": {
    "amenity": "hospital",
    "name": "CX vịnh tre",
    "name:vi": "CX vịnh tre"
  }
},
{
  "type": "node",
  "id": 5177699272,
  "lat": 10.0293770,
  "lon": 105.7537586,
  "tags": {
    "addr:province": "An Khánh",
    "addr:street": "Nguyễn Văn Linh",
    "amenity": "hospital",
    "name": "Phòng khám đa khoa Hoàn hảo",
    "phone": "02923 783 414"
  }
},
{
  "type": "node",
  "id": 5209662235,
  "lat": 21.1633089,
  "lon": 106.0749746,
  "tags": {
    "amenity": "hospital",
    "healthcare": "hospital",
    "name": "Bệnh viện Đa khoa Kinh Bắc",
    "name:en": "Kinh Bắc Hopital"
  }
},
{
  "type": "node",
  "id": 5209770522,
  "lat": 8.9168807,
  "lon": 104.9384527,
  "tags": {
    "amenity": "hospital",
    "name": "Trung tâm ý tế xã Phú Thuận"
  }
},
{
  "type": "node",
  "id": 5243867642,
  "lat": 20.9677609,
  "lon": 105.7789877,
  "tags": {
    "addr:district": "Hà Đông",
    "addr:street": "Tô Hiệu",
    "addr:subdistrict": "Hà Cầu",
    "amenity": "hospital",
    "healthcare": "hospital",
    "healthcare:speciality": "community;general",
    "name": "Trung tâm y tế dự phòng quận Hà Đông"
  }
},
{
  "type": "node",
  "id": 5245299001,
  "lat": 10.0490309,
  "lon": 105.7766544,
  "tags": {
    "addr:full": "102 CMT8, Phường Cái Khế, Ninh Kiều, Cần Thơ",
    "amenity": "hospital",
    "name": "Bệnh viện Đa khoa Hoàn Hảo Medic Cần Thơ"
  }
},
{
  "type": "node",
  "id": 5245624840,
  "lat": 10.0298526,
  "lon": 105.7505590,
  "tags": {
    "addr:full": "300 Nguyễn Văn Cừ nối dài, An Khánh, Cần Thơ, Việt Nam",
    "amenity": "hospital",
    "name": "Beệnh viện phụ sản quốc tế Phương Châu",
    "phone": "+841900545466"
  }
},
{
  "type": "node",
  "id": 5246579680,
  "lat": 10.0130276,
  "lon": 105.7554486,
  "tags": {
    "amenity": "hospital",
    "name": "Bệnh viện Da liễu Cần Thơ",
    "operator": "Bệnh viện Da liễu Cần Thơ"
  }
},
{
  "type": "node",
  "id": 5248125133,
  "lat": 10.0443305,
  "lon": 105.7789192,
  "tags": {
    "addr:full": "40 Hùng Vương, P.Thới Bình, Q.Ninh Kiều, TP.Cần Thơ",
    "amenity": "hospital",
    "email": "ctdcantho@vnn.vn",
    "name": "Hội Chữ Thập Đỏ Việt Nam Thành Phố Cần Thơ",
    "opening_hours": "Mo-Fr 07:00-11:00, 13:00-17:00; Sa 07:00-11:00",
    "phone": "02923820963",
    "website": "https://chuthapdocantho.org.vn/"
  }
},
{
  "type": "node",
  "id": 5249756860,
  "lat": 9.9987217,
  "lon": 105.7595551,
  "tags": {
    "amenity": "hospital",
    "name": "Bệnh viện Đa Khoa Cái Răng"
  }
},
{
  "type": "node",
  "id": 5251451634,
  "lat": 10.0612340,
  "lon": 105.7639030,
  "tags": {
    "addr:city": "Cần Thơ",
    "addr:district": "Bình Thủy",
    "addr:street": "Nguyễn Việt Dũng",
    "addr:subdistrict": "An Thới",
    "amenity": "hospital",
    "name": "Trạm y tế phường An Thới"
  }
},
{
  "type": "node",
  "id": 5251503415,
  "lat": 10.0208000,
  "lon": 105.7712600,
  "tags": {
    "addr:place": "326 tầm vu phường xuân khánh quận ninh kiều thành phố cần thơ",
    "addr:street": "trần ngọc quế",
    "amenity": "hospital",
    "name": "phòng chuẩn trị y học cổ truyền tư nhân TRINH vương",
    "phone": "0923838626",
    "rooms": "3",
    "time": "6h - 17h t2-t7"
  }
},
{
  "type": "node",
  "id": 5253656276,
  "lat": 10.0330366,
  "lon": 105.7797441,
  "tags": {
    "addr:district": "Ninh Kiều",
    "addr:housenumber": "9",
    "addr:street": "Lê Lai",
    "addr:subdistrict": "An Phú",
    "amenity": "hospital",
    "name": "Trạm Y Tế An Phú",
    "phone": "02923830075"
  }
},
{
  "type": "node",
  "id": 5256101781,
  "lat": 10.0292299,
  "lon": 105.7717384,
  "tags": {
    "amenity": "hospital",
    "name": "Phòng khám chuyên khoa Ung bướu"
  }
},
{
  "type": "node",
  "id": 5283521941,
  "lat": 9.9954674,
  "lon": 105.7155535,
  "tags": {
    "amenity": "hospital",
    "name": "Trạm Y tế Xã Mỹ Khánh"
  }
},
{
  "type": "node",
  "id": 5347976523,
  "lat": 10.7626193,
  "lon": 106.6702604,
  "tags": {
    "amenity": "hospital",
    "healthcare": "hospital",
    "name": "Bệnh Viện Hòa Hảo"
  }
},
{
  "type": "node",
  "id": 5351083629,
  "lat": 10.0247709,
  "lon": 105.7196170,
  "tags": {
    "addr:district": "Bình Thủy",
    "addr:subdistrict": "Long Tuyền",
    "amenity": "hospital",
    "name": "Trạm y tế Long Tuyền"
  }
},
{
  "type": "node",
  "id": 5351967525,
  "lat": 22.4870609,
  "lon": 103.9789742,
  "tags": {
    "amenity": "hospital",
    "healthcare": "hospital"
  }
},
{
  "type": "node",
  "id": 5372176369,
  "lat": 18.3460042,
  "lon": 105.8903097,
  "tags": {
    "amenity": "hospital",
    "healthcare": "hospital",
    "name": "Công Ty Cổ Phần Dược Phẩm Thiết bị Y tế Hà Tĩnh"
  }
},
{
  "type": "node",
  "id": 5374081680,
  "lat": 18.3359062,
  "lon": 105.8929872,
  "tags": {
    "amenity": "hospital",
    "healthcare": "hospital",
    "name": "Nhà thuốc Thành Sen"
  }
},
{
  "type": "node",
  "id": 5436559246,
  "lat": 10.7519331,
  "lon": 106.6843795,
  "tags": {
    "addr:city": "Ho Chi Minh City",
    "addr:district": "5",
    "addr:housenumber": "648",
    "addr:postcode": "700000",
    "addr:province": "Hồ Chí Minh",
    "addr:street": "Võ Văn Kiệt",
    "addr:subdistrict": "1",
    "amenity": "hospital",
    "healthcare": "hospital",
    "healthcare:speciality": "internal;gynaecology",
    "name": "Phòng Khám Đa Khoa Thế Giới",
    "operator": "Đa Khoa Thế Giới"
  }
},
{
  "type": "node",
  "id": 5465803021,
  "lat": 10.9507189,
  "lon": 106.7070657,
  "tags": {
    "addr:street": "Đường 22 Tháng 12",
    "amenity": "hospital",
    "internet_access": "wlan",
    "name": "Columbia Asia Hospital",
    "name:en": "Columbia Asia International Hospital",
    "name:vi": "Bệnh Viện Quốc Tế Columbia Asia"
  }
},
{
  "type": "node",
  "id": 5480087721,
  "lat": 9.3118109,
  "lon": 105.7146461,
  "tags": {
    "amenity": "hospital",
    "name": "Bệnh viện Thanh Vũ Bạc Liêu"
  }
},
{
  "type": "node",
  "id": 5515412840,
  "lat": 14.6523987,
  "lon": 108.4397431,
  "tags": {
    "amenity": "hospital",
    "name": "Trạm y tế xã Hiếu"
  }
},
{
  "type": "node",
  "id": 5600384030,
  "lat": 15.9782232,
  "lon": 108.2619988,
  "tags": {
    "amenity": "hospital",
    "healthcare": "hospital",
    "name": "Cổng bảo vệ hướng Nam Kỳ Khởi Nghĩa"
  }
},
{
  "type": "node",
  "id": 5600384031,
  "lat": 15.9791360,
  "lon": 108.2633077,
  "tags": {
    "amenity": "hospital",
    "healthcare": "hospital",
    "name": "Cổng bảo vệ hướng Hẻm 10/6 Trần Đại Nghĩa"
  }
},
{
  "type": "node",
  "id": 5600384032,
  "lat": 15.9792520,
  "lon": 108.2610305,
  "tags": {
    "amenity": "hospital",
    "healthcare": "hospital",
    "name": "Cổng bảo vệ Sân bóng Fpt Software"
  }
},
{
  "type": "node",
  "id": 5609365723,
  "lat": 19.8276263,
  "lon": 105.7786405,
  "tags": {
    "addr:street": "595 Nguyễn Chí Thanh, P. Trường Thi, Thành phố Thanh Hóa, Thanh Hoá",
    "amenity": "hospital",
    "name": "Bệnh viện đa khoa Hợp Lực"
  }
},
{
  "type": "node",
  "id": 5620874321,
  "lat": 20.9219670,
  "lon": 105.8821460,
  "tags": {
    "amenity": "hospital"
  }
},
{
  "type": "node",
  "id": 5638670023,
  "lat": 9.9699732,
  "lon": 105.9219342,
  "tags": {
    "addr:street": "Gia Long",
    "amenity": "hospital",
    "name": "Bệnh Viện Đa Khoa Trà Ôn",
    "name:en": "Tra On hospital"
  }
},
{
  "type": "node",
  "id": 5671003021,
  "lat": 15.8791223,
  "lon": 108.3195682,
  "tags": {
    "addr:housenumber": "123",
    "amenity": "hospital"
  }
},
{
  "type": "node",
  "id": 5808582515,
  "lat": 21.0101268,
  "lon": 105.8382699,
  "tags": {
    "addr:city": "Hà Nội",
    "addr:district": "Hà Nội",
    "addr:housenumber": "152",
    "addr:postcode": "100000",
    "addr:province": "Hà Nội",
    "addr:street": "Phố Xã Đàn",
    "addr:subdistrict": "Đống Đa",
    "amenity": "hospital",
    "description": "Địa chỉ phòng khám đa khoa quốc tế Hà nội chuyên điều trị bệnh nam khoa, phụ khoa bệnh xã hội uy tín tại Việt Nam",
    "emergency": "no",
    "healthcare": "hospital",
    "healthcare:speciality": "clinic",
    "name": "Phòng khám Đa khoa Quốc tế Hà Nội",
    "website": "https://ytequocte.vn/"
  }
},
{
  "type": "node",
  "id": 5812101754,
  "lat": 10.7704948,
  "lon": 105.1100804,
  "tags": {
    "amenity": "hospital",
    "name": "DAI GIANG"
  }
},
{
  "type": "node",
  "id": 5839478946,
  "lat": 21.0244320,
  "lon": 105.8548261,
  "tags": {
    "addr:city": "Hà Nội",
    "addr:district": "Hoàn Kiếm",
    "addr:housenumber": "36",
    "addr:postcode": "10000",
    "addr:province": "Hà Nội",
    "addr:street": "Ngô Quyền",
    "addr:subdistrict": "Hàng Bài",
    "amenity": "hospital",
    "healthcare": "hospital",
    "healthcare:speciality": "general;internal",
    "name": "Nhà hộ sinh A",
    "operator": "Trung tâm y tế Hoàn Kiếm"
  }
},
{
  "type": "node",
  "id": 5853872785,
  "lat": 11.5675731,
  "lon": 107.3114917,
  "tags": {
    "amenity": "hospital",
    "name": "bệnh viện cát lâm 2",
    "name:en": "hospitol",
    "name:vi": "bệnh viện cát lâm 2"
  }
},
{
  "type": "node",
  "id": 5925138785,
  "lat": 16.0227700,
  "lon": 108.2143058,
  "tags": {
    "addr:housenumber": "64",
    "addr:street": "Cách Mạng Tháng Tám",
    "amenity": "hospital",
    "name": "Bệnh viện Đa khoa Tâm Trí Đà Nẵng",
    "name:en": "General Hospital",
    "name:es": "Hospital General",
    "opening_hours": "24/7"
  }
},
{
  "type": "node",
  "id": 6149293414,
  "lat": 12.5828235,
  "lon": 107.9002105,
  "tags": {
    "addr:housenumber": "80B",
    "addr:street": "Hai Bà Trungw",
    "amenity": "hospital",
    "name": "Nguyễn Hồng Trang ( Kế Toán Trưởng BV Cư Jut"
  }
},
{
  "type": "node",
  "id": 6185334967,
  "lat": 20.9727604,
  "lon": 105.6144225,
  "tags": {
    "amenity": "hospital",
    "healthcare": "hospital",
    "name": "Trạm Y tế xã Nghĩa Hương"
  }
},
{
  "type": "node",
  "id": 6315688000,
  "lat": 10.7950017,
  "lon": 106.6672345,
  "tags": {
    "amenity": "hospital",
    "healthcare": "hospital",
    "name": "Bệnh Viện Sài Gòn ITO"
  }
},
{
  "type": "node",
  "id": 6336841552,
  "lat": 10.8480210,
  "lon": 106.6783081,
  "tags": {
    "addr:housenumber": "501-503",
    "addr:street": "Đường số 5",
    "amenity": "hospital",
    "emergency": "yes",
    "healthcare": "hospital",
    "name": "Phòng Khám Đa Khoa Hữu Nghị"
  }
},
{
  "type": "node",
  "id": 6378297381,
  "lat": 20.8228435,
  "lon": 106.6875837,
  "tags": {
    "amenity": "hospital",
    "healthcare": "hospital",
    "name": "Vinmec Marina"
  }
},
{
  "type": "node",
  "id": 6449604779,
  "lat": 21.1171807,
  "lon": 105.9631156,
  "tags": {
    "amenity": "hospital",
    "healthcare": "hospital",
    "name": "Trung tâm Y Tế Thành phố Từ Sơn"
  }
},
{
  "type": "node",
  "id": 6539587371,
  "lat": 16.0619222,
  "lon": 108.2139467,
  "tags": {
    "addr:city": "Da Nang",
    "addr:district": "Hai Chau",
    "addr:housenumber": "129",
    "addr:postcode": "550000",
    "addr:street": "Đường Nguyễn Hoàng",
    "addr:subdistrict": "Nam Duong",
    "amenity": "hospital",
    "healthcare": "hospital",
    "healthcare:speciality": "dentist;dental_oral_maxillo_facial_surgery;dentistry;orthodontics",
    "name": "Dana Dental - Nha Khoa Đà Nẵng",
    "operator": "Công ty TNHH Nha Khoa Dana",
    "operator:type": "business"
  }
},
{
  "type": "node",
  "id": 6545871088,
  "lat": 21.1744605,
  "lon": 106.0542253,
  "tags": {
    "amenity": "hospital",
    "healthcare": "hospital",
    "name": "Bệnh Viện Đa Khoa Thành An - Thăng Long"
  }
},
{
  "type": "node",
  "id": 6605854024,
  "lat": 21.0578596,
  "lon": 105.8983608,
  "tags": {
    "addr:street": "Ngõ 139 Hoa Lâm",
    "amenity": "hospital",
    "healthcare": "hospital"
  }
},
{
  "type": "node",
  "id": 6638922413,
  "lat": 20.9878829,
  "lon": 105.8414776,
  "tags": {
    "amenity": "hospital",
    "description": "Chuyên gia đầu ngành khám và điều trị bệnh mắt; mổ cận thị, loạn, viễn, cườm, mộng thịt, đục thuỷ tinh thể,...; thẩm mỹ vùng mắt: cắt hai mí, lấy da mi và mỡ thừa, tiêm botox,...",
    "healthcare": "hospital",
    "image": "https://scontent.fsgn5-5.fna.fbcdn.net/v/t1.6435-9/191092799_108345138118914_3988178037073698418_n.jpg?_nc_cat=100&ccb=1-3&_nc_sid=e3f864&_nc_ohc=Q_K2KpacZTgAX-LK_So&_nc_ht=scontent.fsgn5-5.fna&oh=29275ab11379a7f2bac0458f863f84b4&oe=60D6E499",
    "mapillary": "https://scontent.fsgn5-5.fna.fbcdn.net/v/t1.6435-9/191092799_108345138118914_3988178037073698418_n.jpg?_nc_cat=100&ccb=1-3&_nc_sid=e3f864&_nc_ohc=Q_K2KpacZTgAX-LK_So&_nc_ht=scontent.fsgn5-5.fna&oh=29275ab11379a7f2bac0458f863f84b4&oe=60D6E499",
    "name": "Bệnh Viện Mắt Hồng Sơn"
  }
},
{
  "type": "node",
  "id": 6669331493,
  "lat": 16.5519586,
  "lon": 107.4406861,
  "tags": {
    "amenity": "hospital",
    "healthcare": "hospital",
    "name": "Hopital"
  }
},
{
  "type": "node",
  "id": 6711085281,
  "lat": 10.7480919,
  "lon": 106.5849097,
  "tags": {
    "addr:street": "Trần Văn Giàu",
    "amenity": "hospital"
  }
},
{
  "type": "node",
  "id": 6765389795,
  "lat": 9.7392039,
  "lon": 106.2598543,
  "tags": {
    "addr:city": "Trà Vinh",
    "addr:district": "Trà Cú",
    "addr:province": "Trà Vinh",
    "addr:street": "Quốc lộ 54",
    "addr:subdistrict": "xã Tập Sơn",
    "amenity": "hospital",
    "email": "phongkhamdakhoatapson@gmail.com",
    "emergency": "yes",
    "healthcare": "hospital",
    "internet_access": "wlan",
    "name": "Trạm YT xã TS",
    "phone": "083423800"
  }
},
{
  "type": "node",
  "id": 6765411066,
  "lat": 9.7383025,
  "lon": 106.2613698,
  "tags": {
    "addr:city": "Trà Vinh",
    "addr:district": "Trà Cú",
    "addr:province": "Trà Vinh",
    "addr:street": "Quốc lộ 54",
    "addr:subdistrict": "xã Tập Sơn",
    "amenity": "hospital",
    "healthcare": "hospital",
    "internet_access": "wlan",
    "name": "Bác sĩ Nhiên",
    "phone": "0979490799"
  }
},
{
  "type": "node",
  "id": 6769858764,
  "lat": 10.7585783,
  "lon": 106.6617832,
  "tags": {
    "addr:city": "Ho Chi Minh City",
    "addr:country": "VN",
    "addr:district": "Quận 10",
    "addr:housenumber": "522-524-526",
    "addr:postcode": "72415",
    "addr:province": "Thành phố Hồ Chí Minh",
    "addr:street": "Đường Nguyễn Chí Thanh",
    "addr:subdistrict": "Phường 7",
    "amenity": "hospital",
    "contact:facebook": "https://www.facebook.com/NhanHauClinic",
    "description": "Phòng khám Đa khoa Quốc tế Nhân Hậu thành lập hơn 14 năm, với các bác sĩ có nhiều năm kinh nghiệm trong nghề. Bên cạnh đó sẽ do các bác sĩ bệnh viện Đại Học Y Dược và bệnh viện Chợ Rẫy đảm nhiệm.",
    "email": "clinicnhanhau@gmail.com",
    "emergency": "no",
    "healthcare": "hospital",
    "healthcare:speciality": "blood_check;ophthalmology;gynaecology;dermatology;otolaryngology;urology;cardiology;angiology;clinical_pathology;diagnostic_radiology;diabetology;endocrinology;gastroenterology;hepatology",
    "image": "https://nhanhauclinic.com.vn/wp-content/uploads/2023/08/phong-kham-nhan-hau.jpg",
    "name": "Phòng khám đa khoa quốc tế Nhân Hậu",
    "opening_hours": "Mo-Sa 06:00-20:00",
    "operator": "CÔNG TY TNHH PHÒNG KHÁM ĐA KHOA QUỐC TẾ NHÂN HẬU",
    "operator:type": "business",
    "phone": "+842862642960",
    "ref:vatin": "0306500345",
    "start_date": "2009-01-05",
    "website": "https://nhanhauclinic.com.vn/"
  }
},
{
  "type": "node",
  "id": 6880476286,
  "lat": 10.4029034,
  "lon": 104.8983188,
  "tags": {
    "amenity": "hospital",
    "name": "An trà"
  }
},
{
  "type": "node",
  "id": 6880476488,
  "lat": 10.3431330,
  "lon": 104.8571901,
  "tags": {
    "amenity": "hospital",
    "name": "Lăm trường"
  }
},
{
  "type": "node",
  "id": 6953550385,
  "lat": 10.7587193,
  "lon": 106.6621153,
  "tags": {
    "addr:housenumber": "502-504",
    "addr:street": "Đường Nguyễn Chí Thanh",
    "amenity": "hospital",
    "healthcare": "hospital",
    "internet_access": "wlan",
    "name": "Phòng Khám Đa Khoa An Phúc",
    "opening_hours": "Mo-Fr 07:00-20:00"
  }
},
{
  "type": "node",
  "id": 7017574263,
  "lat": 10.8037666,
  "lon": 106.6865787,
  "tags": {
    "amenity": "hospital",
    "emergency": "yes",
    "healthcare": "hospital",
    "name": "Trạm Y Tế Phường 7 Quận Phú Nhuận",
    "operator": "Trạm Y Tế Phường 7 Quận Phú Nhuận",
    "operator:type": "public"
  }
},
{
  "type": "node",
  "id": 7043154746,
  "lat": 10.7594650,
  "lon": 106.6834753,
  "tags": {
    "addr:city": "ho chi minh city",
    "addr:district": "5",
    "addr:housenumber": "133",
    "addr:street": "Nguyen Trai",
    "addr:ward": "3",
    "amenity": "hospital",
    "healthcare": "hospital",
    "name": "Phóng khám ACC Quận 5"
  }
},
{
  "type": "node",
  "id": 7043222499,
  "lat": 16.0556207,
  "lon": 108.2220154,
  "tags": {
    "addr:city": "da nanag",
    "addr:district": "hai chau",
    "addr:housenumber": "116",
    "addr:street": "2 thang 9",
    "amenity": "hospital",
    "healthcare": "hospital",
    "name": "Phòng khám ACC Đà Nẵng"
  }
},
{
  "type": "node",
  "id": 7105923285,
  "lat": 10.2604931,
  "lon": 105.9406182,
  "tags": {
    "amenity": "hospital",
    "healthcare": "hospital",
    "name": "Bệnh viện Đa khoa Xuyên Á"
  }
},
{
  "type": "node",
  "id": 7117403688,
  "lat": 10.4092189,
  "lon": 104.0300290,
  "tags": {
    "amenity": "hospital",
    "name:ru": "Поликлиника во дворе"
  }
},
{
  "type": "node",
  "id": 7121588885,
  "lat": 12.2127600,
  "lon": 109.2109028,
  "tags": {
    "addr:housenumber": "42А",
    "addr:street": "Trần Phú",
    "amenity": "hospital",
    "name": "Hospital VINMEC",
    "opening_hours": "24/7",
    "phone": "+842583900168"
  }
},
{
  "type": "node",
  "id": 7142928632,
  "lat": 20.4366506,
  "lon": 106.1578586,
  "tags": {
    "amenity": "hospital",
    "name": "Bệnh viện Đa khoa Sài Gòn – Nam Định"
  }
},
{
  "type": "node",
  "id": 7146615786,
  "lat": 21.4050891,
  "lon": 105.8743812,
  "tags": {
    "addr:city": "Phổ Yên",
    "addr:district": "Phổ Yên",
    "addr:province": "Thái Nguyên",
    "addr:street": "Trần Nguyên Hãn",
    "addr:subdistrict": "Nam Tiến",
    "amenity": "hospital",
    "healthcare": "hospital",
    "name": "Bệnh viện đa khoa Yên Bình"
  }
},
{
  "type": "node",
  "id": 7193381786,
  "lat": 12.6741148,
  "lon": 108.0456056,
  "tags": {
    "addr:city": "Buôn Ma Thuột",
    "addr:housenumber": "59",
    "addr:postcode": "650000",
    "addr:province": "Đăk Lăk",
    "addr:street": "Đinh Tiên Hoàng",
    "amenity": "hospital",
    "healthcare": "hospital",
    "name": "Tree Spa",
    "source": "Tree Spa"
  }
},
{
  "type": "node",
  "id": 7244107988,
  "lat": 16.4869905,
  "lon": 107.5714840,
  "tags": {
    "amenity": "hospital",
    "name:en": "Millitary Hospital (closed to public)"
  }
},
{
  "type": "node",
  "id": 7244110486,
  "lat": 16.4867687,
  "lon": 107.5715491,
  "tags": {
    "amenity": "hospital"
  }
},
{
  "type": "node",
  "id": 7409549828,
  "lat": 20.9471543,
  "lon": 105.7078282,
  "tags": {
    "addr:city": "Hà Nội",
    "addr:district": "Chương Mỹ",
    "addr:province": "Việt Nam",
    "addr:street": "Phượng Nghĩa",
    "addr:subdistrict": "Phụng Châu",
    "amenity": "hospital",
    "healthcare": "hospital",
    "name": "Trạm Y tế Phụng Châu"
  }
},
{
  "type": "node",
  "id": 7520822997,
  "lat": 15.8098343,
  "lon": 108.0377451,
  "tags": {
    "addr:city": "Đại Lộc",
    "addr:district": "Đại Chánh",
    "addr:postcode": "564910",
    "addr:province": "Quảng Nam",
    "addr:subdistrict": "Đại Khương",
    "amenity": "hospital",
    "emergency": "no",
    "healthcare": "nurse",
    "healthcare:speciality": "first_aid;Sơ_cứu",
    "name": "Trạm Y Tế xã Đại Chánh",
    "name:en": "Dai Chanh Commune Health Station",
    "name:vi": "Trạm Y Tế xã Đại Chánh"
  }
},
{
  "type": "node",
  "id": 7541325568,
  "lat": 16.0765970,
  "lon": 108.2158614,
  "tags": {
    "addr:city": "Đà Nẵng",
    "addr:district": "Hải Châu",
    "addr:housenumber": "276 - 278",
    "addr:postcode": "550000",
    "addr:province": "Đà Nẵng",
    "addr:street": "Đường Đống Đa",
    "addr:subdistrict": "Thanh Bình",
    "amenity": "hospital",
    "email": "thiennhanhospital@gmail.com",
    "emergency": "yes",
    "healthcare": "hospital",
    "healthcare:speciality": "chiropractic;general;gynaecology;ophthalmology;paediatrics;internal;orthopaedics;dentist;psychiatry;dermatology;biology;otolaryngology;osteopathy;radiology;orthodontics;urology;surgery;cardiology;plastic_surgery;physiotherapy;neurology;acupuncture",
    "name": "Thien Nhan Hospital",
    "operator": "Công Ty Cổ Phần Bệnh Viện Thiện Nhân",
    "operator:type": "business",
    "phone": "+84363568988",
    "website": "https://thiennhanhospital.com/"
  }
},
{
  "type": "node",
  "id": 7668156135,
  "lat": 21.0006572,
  "lon": 106.5390806,
  "tags": {
    "addr:city": "Thành Phố Hải Dương",
    "addr:housenumber": "Hiệp Thạch-Hiệp Sơn",
    "addr:subdistrict": "Thị Xã Kinh Môn",
    "amenity": "hospital",
    "emergency": "no",
    "healthcare": "hospital",
    "healthcare:speciality": "Phòng_Khám_Đa_Khoa",
    "name": "Phòng Khám Đa Khoa Bảo An",
    "operator": "Công Ty Cổ Phần Y Tế Bảo An Phát"
  }
},
{
  "type": "node",
  "id": 8166987975,
  "lat": 16.0691553,
  "lon": 108.1837520,
  "tags": {
    "addr:city": "Đà Nẵng",
    "addr:province": "Đà Nẵng",
    "amenity": "hospital",
    "healthcare": "hospital",
    "name": "Huong Dat Dental Clinic"
  }
},
{
  "type": "node",
  "id": 8276733942,
  "lat": 9.9778596,
  "lon": 105.8144205,
  "tags": {
    "addr:city": "Thành phố Cần Thơ",
    "addr:district": "quận Ninh Kiều",
    "addr:housenumber": "19",
    "addr:postcode": "900000",
    "addr:street": "Hùng Vương",
    "addr:subdistrict": "phường Thới Bình",
    "amenity": "hospital",
    "healthcare": "hospital",
    "healthcare:speciality": "plastic_surgery",
    "name": "Thẩm mỹ viện Hoàn Mỹ Cần Thơ"
  }
},
{
  "type": "node",
  "id": 8276897038,
  "lat": 10.0445564,
  "lon": 105.7794480,
  "tags": {
    "addr:city": "Cần Thơ",
    "addr:district": "Ninh Kiều",
    "addr:housenumber": "số 19",
    "addr:postcode": "900000",
    "addr:street": "Hùng Vương",
    "addr:subdistrict": "Thới Bình",
    "amenity": "hospital",
    "healthcare": "hospital",
    "healthcare:speciality": "plastic_surgery",
    "name": "Thẩm mỹ viện Hoàn Mỹ Cần Thơ",
    "phone": "0704962117"
  }
},
{
  "type": "node",
  "id": 8317321610,
  "lat": 21.0399130,
  "lon": 105.7472566,
  "tags": {
    "addr:city": "Phường Xuân Phương",
    "addr:postcode": "10000",
    "addr:province": "Hà Nội",
    "addr:street": "Phố Trịnh Văn Bô",
    "amenity": "hospital",
    "healthcare": "hospital",
    "healthcare:speciality": "geriatrics;elderly_care",
    "name": "Trung tâm Chăm sóc Sức khoẻ Người cao tuổi Hoa Sen Lotus Care",
    "name:en": "Lotus Care"
  }
},
{
  "type": "node",
  "id": 8360208001,
  "lat": 21.0651797,
  "lon": 105.7628554,
  "tags": {
    "amenity": "hospital",
    "healthcare": "hospital",
    "name": "Nha Khoa"
  }
},
{
  "type": "node",
  "id": 8588635222,
  "lat": 21.0472605,
  "lon": 105.8140405,
  "tags": {
    "addr:city": "Phường Bưởi",
    "addr:housenumber": "99",
    "addr:province": "Hà Nội",
    "addr:street": "Phố Trích Sài",
    "amenity": "hospital",
    "healthcare": "hospital",
    "name": "Phòng Khám Đa Khoa Medlatec"
  }
},
{
  "type": "node",
  "id": 9005878157,
  "lat": 20.9301069,
  "lon": 105.8481456,
  "tags": {
    "addr:city": "Hanoi",
    "addr:district": "Km 13 Đ. Ngọc Hồi, Ngọc Hồi, Thanh Trì, Hà Nội 100000, Vietnam",
    "addr:housenumber": "Km 13",
    "addr:postcode": "100000",
    "addr:street": "Đường Ngọc Hồi",
    "addr:subdistrict": "Km 13 Đ. Ngọc Hồi, Ngọc Hồi, Thanh Trì, Hà Nội 100000, Vietnam",
    "amenity": "hospital",
    "healthcare": "hospital",
    "healthcare:speciality": "general",
    "name": "Trung tâm tiêm ᴄhủng Fivevac",
    "operator": "person",
    "operator:type": "government"
  }
},
{
  "type": "node",
  "id": 9028202324,
  "lat": 21.4535845,
  "lon": 105.8621550,
  "tags": {
    "amenity": "hospital",
    "healthcare": "hospital",
    "name": "Bệnh viện Y Tế Phúc Thái"
  }
},
{
  "type": "node",
  "id": 9028649346,
  "lat": 21.6310860,
  "lon": 105.8443464,
  "tags": {
    "amenity": "hospital",
    "healthcare": "hospital",
    "name": "Trung tâm Y tế huyện Đồng Hỷ"
  }
},
{
  "type": "node",
  "id": 9028717184,
  "lat": 21.4054327,
  "lon": 105.8750175,
  "tags": {
    "amenity": "hospital",
    "healthcare": "hospital"
  }
},
{
  "type": "node",
  "id": 9122014191,
  "lat": 11.2578764,
  "lon": 106.6099476,
  "tags": {
    "amenity": "hospital",
    "healthcare": "hospital",
    "name": "Trung tâm Y tế huyện Bầu Bàng"
  }
},
{
  "type": "node",
  "id": 9170769077,
  "lat": 10.2398715,
  "lon": 106.3675519,
  "tags": {
    "addr:district": "TP Bến Tre",
    "addr:housenumber": "333D",
    "addr:province": "Bến Tre",
    "addr:street": "Đoàn Hoàng Minh",
    "addr:subdistrict": "Phường 5",
    "amenity": "hospital",
    "healthcare": "hospital",
    "healthcare:speciality": "general",
    "name": "Bệnh Viện Minh Đức"
  }
},
{
  "type": "node",
  "id": 9171304680,
  "lat": 10.8743224,
  "lon": 106.6391286,
  "tags": {
    "amenity": "hospital",
    "healthcare": "hospital",
    "healthcare:speciality": "vaccination",
    "name": "Trung Tâm Y Tế Dự Phòng Quận 12",
    "phone": "+842862507950"
  }
},
{
  "type": "node",
  "id": 9185956818,
  "lat": 16.4669155,
  "lon": 107.5734018,
  "tags": {
    "addr:city": "Huế",
    "addr:housenumber": "21",
    "addr:province": "Thừa Thiên - Huế",
    "addr:street": "Nguyễn Thiện Thuật",
    "addr:subdistrict": "Thuận Hòa",
    "amenity": "hospital",
    "emergency": "no",
    "healthcare": "hospital",
    "healthcare:speciality": "pharmacy;family_medicine;medicine",
    "name": "Nhà thuốc Thanh Nhàn",
    "operator": "Nha thuoc Thanh Nhan",
    "operator:type": "business",
    "website": "https://facebook.com/NhaThuocThanhNhan"
  }
},
{
  "type": "node",
  "id": 9419460107,
  "lat": 15.4856805,
  "lon": 108.3114250,
  "tags": {
    "addr:city": "Tiên Phước",
    "addr:district": "Tiên Phước",
    "addr:housenumber": "61",
    "addr:postcode": "52606",
    "addr:province": "Quảng Nam",
    "addr:street": "Tôn Dức Thắng",
    "addr:subdistrict": "Tiên Kỳ",
    "amenity": "hospital",
    "emergency": "yes",
    "healthcare": "hospital",
    "healthcare:speciality": "urology",
    "image": "https://goo.gl/maps/fRUG4VPgGEPwmgRK8",
    "internet_access": "yes",
    "name": "Nấm Lim Xanh, Sâm Ngọc Linh",
    "name:vi": "Cửa Hàng NẤM LIM XANH, SÂM NGỌC LINH",
    "note": "cung cấp Nấm Lim Xanh tự nhiên trị bệnh gan, ngừa ung thư ...",
    "operator": "Mua Bán Dược Liệu Tự Nhiên",
    "operator:type": "business",
    "website": "https://www.facebook.com/namlimduoclieu/"
  }
},
{
  "type": "node",
  "id": 9554101929,
  "lat": 21.1531635,
  "lon": 106.1555431,
  "tags": {
    "addr:city": "Bắc Ninh",
    "addr:district": "Thị xã Quế Võ",
    "addr:province": "Bac Ninh",
    "addr:street": "Đường Trần Hưng Đạo",
    "addr:subdistrict": "Phường Phố Mới",
    "amenity": "hospital",
    "healthcare": "hospital",
    "name": "Bệnh viện Đa khoa Thiện Nhân"
  }
},
{
  "type": "node",
  "id": 9585162940,
  "lat": 10.7565107,
  "lon": 106.6660610,
  "tags": {
    "amenity": "hospital",
    "healthcare": "hospital",
    "name": "Bệnh viện Truyền máu Huyết học 1"
  }
},
{
  "type": "node",
  "id": 9586251041,
  "lat": 10.7515951,
  "lon": 106.6963420,
  "tags": {
    "amenity": "hospital",
    "healthcare": "hospital",
    "name": "Bệnh viện Đa khoa Tân Hưng"
  }
},
{
  "type": "node",
  "id": 9586916914,
  "lat": 10.8699419,
  "lon": 106.7631673,
  "tags": {
    "amenity": "hospital",
    "healthcare": "hospital",
    "name": "Bệnh Viện Hoà Hảo"
  }
},
{
  "type": "node",
  "id": 9586916916,
  "lat": 10.8641237,
  "lon": 106.7457693,
  "tags": {
    "amenity": "hospital",
    "healthcare": "hospital",
    "name": "Bệnh viện Quận Thủ Đức"
  }
},
{
  "type": "node",
  "id": 9587086998,
  "lat": 21.0431119,
  "lon": 105.8711851,
  "tags": {
    "amenity": "hospital",
    "healthcare": "hospital",
    "name": "Bệnh Viện Đa Khoa Quốc Tế Bắc Hà"
  }
},
{
  "type": "node",
  "id": 9587108043,
  "lat": 20.9601420,
  "lon": 105.7884888,
  "tags": {
    "amenity": "hospital",
    "healthcare": "hospital",
    "name": "Trạm Y Tế Phường KIến Hưng"
  }
},
{
  "type": "node",
  "id": 9593240663,
  "lat": 10.8317212,
  "lon": 106.6218645,
  "tags": {
    "amenity": "hospital",
    "healthcare": "hospital",
    "name": "Bệnh viện Đa khoa Tâm Trí Sài Gòn"
  }
},
{
  "type": "node",
  "id": 9593258920,
  "lat": 20.8487843,
  "lon": 105.7573208,
  "tags": {
    "amenity": "hospital",
    "healthcare": "hospital",
    "name": "Trạm Y Tế Xã Kim An"
  }
},
{
  "type": "node",
  "id": 9593340017,
  "lat": 10.9475149,
  "lon": 106.7371674,
  "tags": {
    "amenity": "hospital",
    "healthcare": "hospital",
    "name": "Bệnh Viện Đa khoa An Phú"
  }
},
{
  "type": "node",
  "id": 9593340024,
  "lat": 10.8910082,
  "lon": 106.7273892,
  "tags": {
    "amenity": "hospital",
    "healthcare": "hospital",
    "name": "Bệnh Viện Hoàn Hảo 2"
  }
},
{
  "type": "node",
  "id": 9593946639,
  "lat": 10.7405442,
  "lon": 106.6077220,
  "tags": {
    "amenity": "hospital",
    "healthcare": "hospital",
    "name": "Bệnh viện Gia An 115"
  }
},
{
  "type": "node",
  "id": 9658535627,
  "lat": 20.9992267,
  "lon": 105.8141044,
  "tags": {
    "addr:city": "Hà Nội",
    "addr:district": "Thanh Xuân",
    "addr:housenumber": "136",
    "addr:province": "Hà Nội",
    "addr:street": "Nguyễn Trãi",
    "addr:subdistrict": "Thanh Xuân Trung",
    "amenity": "hospital",
    "description": "Cơ sở Nguyễn Trãi của hệ thống bệnh viện đa khoa quốc tế Thu Cúc",
    "emergency": "yes",
    "healthcare": "hospital",
    "name": "Thu Cúc TCI Thanh Xuân",
    "name:en": "Thu Cuc International General Hospital",
    "opening_hours": "Mo-Su 08:00-17:00",
    "phone": "+84 936 188 584",
    "website": "https://benhvienthucuc.vn/"
  }
},
{
  "type": "node",
  "id": 9680496673,
  "lat": 20.8559832,
  "lon": 106.6826230,
  "tags": {
    "amenity": "hospital",
    "healthcare": "hospital"
  }
},
{
  "type": "node",
  "id": 9732933711,
  "lat": 20.3552675,
  "lon": 105.3749752,
  "tags": {
    "amenity": "hospital",
    "healthcare": "hospital",
    "healthcare:speciality": "covid19",
    "name": "Trạm Y Tế Lương Nội"
  }
},
{
  "type": "node",
  "id": 9788576207,
  "lat": 21.0511017,
  "lon": 105.7907820,
  "tags": {
    "addr:city": "Hà Nội",
    "addr:district": "Quận Bắc Từ Liêm",
    "addr:housenumber": "25 An Sinh",
    "addr:postcode": "10000",
    "addr:street": "Ngõ 208 Trần Cung",
    "addr:subdistrict": "Phường Cổ Nhuế 1",
    "amenity": "hospital",
    "healthcare": "hospital",
    "healthcare:speciality": "health",
    "name": "Trung tâm Nghiên cứu và Ứng dụng Y học cổ truyền CTA",
    "operator": "Lương y Đỗ Tuấn Nam",
    "operator:type": "public"
  }
},
{
  "type": "node",
  "id": 9875885617,
  "lat": 20.9846120,
  "lon": 105.7928536,
  "tags": {
    "amenity": "hospital",
    "healthcare": "hospital",
    "name": "Bệnh viện Tuệ Tĩnh"
  }
},
{
  "type": "node",
  "id": 9961700813,
  "lat": 10.7525482,
  "lon": 106.6657510,
  "tags": {
    "addr:housenumber": "218K",
    "addr:street": "Đường Trần Hưng Ðạo",
    "amenity": "hospital",
    "healthcare": "hospital",
    "name": "Bệnh viện Y học cổ truyền TP.HCM (cơ sở 2)"
  }
},
{
  "type": "node",
  "id": 9965185460,
  "lat": 10.7651115,
  "lon": 106.6932273,
  "tags": {
    "addr:housenumber": "235-237",
    "addr:street": "Trần Hưng Ðạo",
    "amenity": "hospital",
    "healthcare": "hospital",
    "name": "Bệnh viện Quận 1 (cơ sở 2)"
  }
},
{
  "type": "node",
  "id": 10019105710,
  "lat": 20.9777275,
  "lon": 105.9018259,
  "tags": {
    "amenity": "hospital",
    "healthcare": "hospital",
    "source": "hospital"
  }
},
{
  "type": "node",
  "id": 10047410618,
  "lat": 10.7441887,
  "lon": 106.7275329,
  "tags": {
    "addr:street": "Hẻm 458 Huỳnh Tấn Phát",
    "amenity": "hospital",
    "name": "BỆNH VIỆN MẮT"
  }
},
{
  "type": "node",
  "id": 10166537628,
  "lat": 21.0689223,
  "lon": 105.7616027,
  "tags": {
    "amenity": "hospital",
    "healthcare": "hospital"
  }
},
{
  "type": "node",
  "id": 10170524317,
  "lat": 10.8558331,
  "lon": 106.7665022,
  "tags": {
    "addr:city": "Phường Linh Chiểu",
    "addr:district": "Quan Thu Duc",
    "addr:housenumber": "148D",
    "addr:postcode": "700000",
    "addr:province": "Thành phố Hồ Chí Minh",
    "addr:street": "Hoàng Diệu 2",
    "addr:subdistrict": "Linh Trung",
    "amenity": "hospital",
    "healthcare": "hospital",
    "healthcare:speciality": "traditional_chinese_medicine",
    "name": "Phòng khám đa khoa YHCT Thiên Phúc Đường",
    "operator": "Thiên Phúc Đường",
    "operator:type": "business"
  }
},
{
  "type": "node",
  "id": 10316420839,
  "lat": 20.9920389,
  "lon": 105.8166469,
  "tags": {
    "amenity": "hospital",
    "healthcare": "hospital",
    "name": "Trạm y tế Khương Hạ"
  }
},
{
  "type": "node",
  "id": 10574610490,
  "lat": 10.2690607,
  "lon": 106.3916986,
  "tags": {
    "addr:city": "Bến Tre",
    "addr:district": "Châu Thành",
    "addr:postcode": "70000",
    "addr:province": "Bến Tre",
    "addr:street": "ĐT. 883",
    "addr:subdistrict": "Hữu Định",
    "amenity": "hospital",
    "healthcare": "hospital",
    "healthcare:speciality": "thần_kinh",
    "name": "Bệnh Viện Tâm Thần tỉnh Bến Tre"
  }
},
{
  "type": "node",
  "id": 10784567266,
  "lat": 10.2453373,
  "lon": 106.3628742,
  "tags": {
    "amenity": "hospital",
    "healthcare": "hospital",
    "name": "Bệnh Viện YHCT Trần Văn An"
  }
},
{
  "type": "node",
  "id": 10828683742,
  "lat": 11.3590399,
  "lon": 106.7256654,
  "tags": {
    "amenity": "hospital",
    "emergency": "no",
    "healthcare": "hospital",
    "name": "Trạm y tế xã An Linh"
  }
},
{
  "type": "node",
  "id": 10855401102,
  "lat": 20.9245983,
  "lon": 105.8885189,
  "tags": {
    "amenity": "hospital",
    "healthcare": "hospital"
  }
},
{
  "type": "node",
  "id": 10855443211,
  "lat": 20.9243330,
  "lon": 105.8908793,
  "tags": {
    "addr:city": "Thanh Trì",
    "addr:district": "Duyên Hà",
    "addr:province": "Hà Nội",
    "amenity": "hospital",
    "healthcare": "hospital",
    "name": "Nhà thuốc đông y Bùi Tộc"
  }
},
{
  "type": "node",
  "id": 10893013871,
  "lat": 20.9908736,
  "lon": 105.7965721,
  "tags": {
    "addr:housenumber": "182",
    "addr:street": "Đường Lương Thế Vinh",
    "amenity": "hospital",
    "healthcare": "hospital",
    "name": "Bệnh viện Đại học Quốc gia Hà Nội"
  }
},
{
  "type": "node",
  "id": 10982272878,
  "lat": 10.8763131,
  "lon": 106.6406947,
  "tags": {
    "addr:city": "thành phố Hồ Chí Minh",
    "addr:district": "quận 12",
    "addr:housenumber": "15",
    "addr:postcode": "700000",
    "addr:street": "Dương Thị Mười",
    "addr:subdistrict": "Hiệp Thành",
    "amenity": "hospital",
    "emergency": "yes",
    "healthcare": "hospital",
    "healthcare:speciality": "làm_đẹp;chăm_sóc_da;điều_trị_da;spa_làm_đẹp",
    "name": "188 Beauty Spa quận 12 | Viện thẩm mỹ hàng đầu tpHCM"
  }
},
{
  "type": "node",
  "id": 11056537972,
  "lat": 10.6798522,
  "lon": 106.7874696,
  "tags": {
    "addr:district": "Nhơn Trạch",
    "addr:province": "Đồng Nai",
    "addr:subdistrict": "Phước Khánh",
    "amenity": "hospital",
    "healthcare": "hospital",
    "name": "Trung Tâm Y Tế Huyện Nhơn Trạch Tram Y Tế Xã Phước Khánh"
  }
},
{
  "type": "node",
  "id": 11073584171,
  "lat": 11.2908098,
  "lon": 106.1195624,
  "tags": {
    "addr:district": "Hòa Thành",
    "addr:housenumber": "187",
    "addr:province": "Tây Ninh",
    "addr:street": "Phạm Văn Đồng",
    "addr:subdistrict": "Hiệp Long",
    "amenity": "hospital",
    "healthcare": "hospital",
    "name": "Bệnh viện đa khoa Hồng Hưng"
  }
},
{
  "type": "node",
  "id": 11097066558,
  "lat": 10.5393794,
  "lon": 106.5156639,
  "tags": {
    "addr:district": "Tân Trụ",
    "addr:province": "Long An",
    "addr:subdistrict": "Bình Tây",
    "amenity": "hospital",
    "healthcare": "hospital",
    "name": "Trạm Y Tế Xã Bình Trinh Đông"
  }
},
{
  "type": "node",
  "id": 11104405789,
  "lat": 21.0334322,
  "lon": 105.7714164,
  "tags": {
    "addr:city": "Hà Nội",
    "addr:district": "Nam Từ Liêm",
    "addr:housenumber": "108",
    "addr:province": "Hà Nội",
    "addr:street": "Phố Nguyễn Hoàng",
    "addr:subdistrict": "Mỹ Đình 2",
    "amenity": "hospital",
    "email": "info@dolifehospital.vn",
    "healthcare": "hospital",
    "healthcare:speciality": "general",
    "name": "Bệnh viện Quốc tế Dolife",
    "opening_hours": "Mo-Su 07:00-16:30",
    "operator": "Công ty Cổ phần Trung Tín",
    "operator:type": "private",
    "phone": "+84 1900 1984",
    "website": "https://dolifehospital.vn/"
  }
},
{
  "type": "node",
  "id": 11110999476,
  "lat": 10.5145217,
  "lon": 106.6042986,
  "tags": {
    "addr:district": "Cần Đước",
    "addr:province": "Long An",
    "addr:street": "Quốc lộ 50",
    "addr:subdistrict": "Tân Lân",
    "amenity": "hospital",
    "healthcare": "hospital",
    "name": "Bệnh viện Cần Đước"
  }
},
{
  "type": "node",
  "id": 11112384435,
  "lat": 10.4886683,
  "lon": 106.6222104,
  "tags": {
    "addr:district": "Cần Đước",
    "addr:province": "Long An",
    "addr:street": "Quốc lộ 50",
    "addr:subdistrict": "Phước Đông",
    "amenity": "hospital",
    "healthcare": "hospital",
    "name": "Trạm y tế xã Phước Đông"
  }
},
{
  "type": "node",
  "id": 11112386855,
  "lat": 10.4953379,
  "lon": 106.5962387,
  "tags": {
    "addr:district": "Cần Đước",
    "addr:province": "Long An",
    "addr:subdistrict": "Ấp 6",
    "amenity": "hospital",
    "healthcare": "hospital",
    "name": "Trạm Y Tế Xã Tân Ân"
  }
},
{
  "type": "node",
  "id": 11152952450,
  "lat": 21.0701905,
  "lon": 105.7760138,
  "tags": {
    "amenity": "hospital",
    "healthcare": "hospital"
  }
},
{
  "type": "node",
  "id": 11153640080,
  "lat": 10.8888316,
  "lon": 106.8616285,
  "tags": {
    "addr:city": "Thành phố Biên Hòa",
    "addr:district": "An Hòa",
    "addr:province": "Đồng Nai",
    "addr:street": "Đường Ngô Quyền",
    "amenity": "hospital",
    "healthcare": "hospital",
    "name": "Trạm Y Tế Xã An Hòa"
  }
},
{
  "type": "node",
  "id": 11162764594,
  "lat": 21.3837456,
  "lon": 103.0362300,
  "tags": {
    "amenity": "hospital",
    "healthcare": "hospital",
    "name": "Bệnh viện Tâm thần tỉnh Điện Biên"
  }
},
{
  "type": "node",
  "id": 11169202590,
  "lat": 21.0662593,
  "lon": 105.7819381,
  "tags": {
    "amenity": "hospital",
    "healthcare": "hospital",
    "healthcare:speciality": "dentist",
    "name": "Duck's Hospital"
  }
},
{
  "type": "node",
  "id": 11190957339,
  "lat": 21.0576234,
  "lon": 105.7836205,
  "tags": {
    "addr:street": "Đường Trần Cung",
    "amenity": "hospital",
    "healthcare": "hospital",
    "name": "Tram Xa Co Nhue"
  }
},
{
  "type": "node",
  "id": 11252184737,
  "lat": 12.2522561,
  "lon": 109.1883141,
  "tags": {
    "addr:housenumber": "69",
    "addr:street": "Trần Quý Cáp",
    "amenity": "hospital",
    "healthcare": "hospital",
    "healthcare:speciality": "paediatrics;general",
    "name": "Prestige international polyclinic",
    "name:en": "Prestige international polyclinic",
    "name:ru": "Поликлиника Престиж (+ Детский врач)",
    "opening_hours": "Mo-Su 07:00-19:00",
    "website": "http://medictinduc.vn"
  }
},
{
  "type": "node",
  "id": 11391582959,
  "lat": 10.8375648,
  "lon": 106.8153901,
  "tags": {
    "addr:housenumber": "123",
    "addr:street": "Đường D1",
    "amenity": "hospital",
    "emergency": "yes",
    "name": "Kyo",
    "operator": "Kyo"
  }
},
{
  "type": "node",
  "id": 11591853849,
  "lat": 21.0019138,
  "lon": 105.7511536,
  "tags": {
    "addr:city": "Phường Tây Mỗ",
    "addr:district": "Quận Nam Từ Liêm",
    "addr:province": "Thành phố Hà Nội",
    "addr:street": "Ngõ 27 Tây Mỗ, P. Tây Mỗ, Q. Nam Từ Liêm, TP. Hà Nội",
    "addr:subdistrict": "Phường Tây Mỗ",
    "amenity": "hospital",
    "healthcare": "hospital",
    "name": "Trạm y tế phường Tây Mỗ",
    "wheelchair": "limited"
  }
},
{
  "type": "node",
  "id": 11601353636,
  "lat": 21.0168006,
  "lon": 105.8494660,
  "tags": {
    "addr:city": "Hà Nội",
    "addr:district": "Hai Bà Trưng",
    "addr:housenumber": "51-53-55",
    "addr:province": "Hà Nội",
    "addr:street": "Phố Trần Nhân Tông",
    "addr:subdistrict": "Nguyễn Du",
    "amenity": "hospital",
    "healthcare": "hospital",
    "healthcare:speciality": "ophthalmology",
    "name": "Bệnh viện Mắt Kỹ thuật cao Hà Nội",
    "opening_hours": "Mo-Fr 07:30-12:00,13:30-17:00; Sa-Su 07:30-12:00,13:30-18:00",
    "phone": "+84 984 122 153",
    "website": "https://benhvienmat.vn/"
  }
},
{
  "type": "node",
  "id": 11625397936,
  "lat": 21.0145775,
  "lon": 105.8502987,
  "tags": {
    "addr:city": "Hà Nội",
    "addr:district": "Hai Bà Trưng",
    "addr:housenumber": "122",
    "addr:province": "Hà Nội",
    "addr:street": "Phố Triệu Việt Vương",
    "addr:subdistrict": "Nguyễn Du",
    "amenity": "hospital",
    "contact:email": "info@matvietnhat.com.vn",
    "contact:facebook": "https://www.facebook.com/matvietnhat",
    "contact:phone": "+84 24 3974 8307",
    "contact:website": "https://matvietnhat.com.vn/",
    "emergency": "no",
    "healthcare": "hospital",
    "healthcare:speciality": "ophthalmology",
    "name": "Bệnh viện Mắt Việt Nhật",
    "name:en": "Vietnam - Japan Eye Hospital",
    "name:tr": "Vietnam-Japonya Göz Hastanesi"
  }
},
{
  "type": "node",
  "id": 11683961268,
  "lat": 21.0395120,
  "lon": 105.8472708,
  "tags": {
    "addr:city": "Hà Nội",
    "addr:district": "Quận Hoàn Kiếm",
    "addr:housenumber": "5",
    "addr:province": "Hà Nội",
    "addr:street": "Phố Hàng Cót",
    "addr:subdistrict": "Phường Hàng Mã",
    "amenity": "hospital",
    "healthcare": "hospital",
    "name": "Trạm Y tế phường Hàng Mã"
  }
},
{
  "type": "node",
  "id": 11882973176,
  "lat": 21.0040429,
  "lon": 105.7496348,
  "tags": {
    "addr:city": "Phường Tây Mỗ",
    "addr:district": "Quận Nam Từ Liêm",
    "addr:housenumber": "68",
    "addr:province": "Thành phố Hà Nội",
    "addr:street": "Tây Mỗ, phường Tây Mỗ, quận Nam Từ Liêm, Hà Nội",
    "addr:subdistrict": "Phường Tây Mỗ",
    "amenity": "hospital",
    "healthcare": "hospital",
    "name": "Bệnh viện Hữu nghị Quốc tế Hà Nội",
    "wheelchair": "yes"
  }
},
{
  "type": "node",
  "id": 11949875397,
  "lat": 21.0135889,
  "lon": 105.8209988,
  "tags": {
    "amenity": "hospital",
    "name": "Bệnh viện đa khoa Nông nghiệp 2"
  }
},
{
  "type": "node",
  "id": 12000027489,
  "lat": 21.0471714,
  "lon": 105.8458691,
  "tags": {
    "addr:street": "Ngõ 53 Tân Ấp",
    "amenity": "hospital",
    "healthcare": "hospital",
    "name": "Bệnh viện Đa khoa Hoè Nhai - Cơ sở 2"
  }
},
{
  "type": "node",
  "id": 12030710756,
  "lat": 10.7278961,
  "lon": 106.7080164,
  "tags": {
    "addr:city": "Hồ Chí Minh",
    "addr:district": "Quận 7",
    "addr:housenumber": "Số 2",
    "addr:postcode": "700000",
    "addr:province": "Thành phố Hồ Chí Minh",
    "addr:street": "Nội Khu Mỹ Toàn 2",
    "addr:subdistrict": "Phường Tân Phong",
    "amenity": "hospital",
    "healthcare": "hospital",
    "healthcare:speciality": "v;blood_check;trauma",
    "name": "Phòng Khám Dr Vein"
  }
},
{
  "type": "node",
  "id": 12135053693,
  "lat": 20.9789324,
  "lon": 105.7751087,
  "tags": {
    "amenity": "hospital",
    "healthcare": "hospital",
    "name": "Trạm y tế Phường Vạn Phúc"
  }
},
{
  "type": "node",
  "id": 12156991391,
  "lat": 9.9514598,
  "lon": 106.5153094,
  "tags": {
    "amenity": "hospital",
    "healthcare": "hospital",
    "name": "Bệnh Viện Đa Khoa Huyện Thạnh Phú"
  }
},
{
  "type": "node",
  "id": 12249370630,
  "lat": 10.7404252,
  "lon": 106.6998107,
  "tags": {
    "addr:city": "Hồ Chí Minh",
    "addr:district": "Quận 7",
    "addr:housenumber": "1",
    "addr:postcode": "70000",
    "addr:province": "Thành phố Hồ Chí Minh",
    "addr:street": "Đường Nguyễn Thị Thập",
    "addr:subdistrict": "Phường Tân Hưng",
    "amenity": "hospital",
    "contact:facebook": "https://www.facebook.com/nhakhoasingdent",
    "healthcare": "hospital",
    "healthcare:speciality": "dentist;orthodontics",
    "mobile": "+84868033966",
    "name": "Nha Khoa SingDent",
    "operator": "Nha Khoa SingDent",
    "operator:type": "business"
  }
},
{
  "type": "node",
  "id": 12287790997,
  "lat": 21.1601464,
  "lon": 106.1260630,
  "tags": {
    "amenity": "hospital",
    "healthcare": "hospital"
  }
},
{
  "type": "node",
  "id": 12315783825,
  "lat": 10.7888402,
  "lon": 106.6974043,
  "tags": {
    "addr:city": "Ho Chi Minh City",
    "addr:district": "Quận 1",
    "addr:housenumber": "11",
    "addr:postcode": "710000",
    "addr:province": "Thành phố Hồ Chí Minh",
    "addr:street": "Trần Doãn Khanh",
    "addr:subdistrict": "Đa Kao",
    "amenity": "hospital",
    "contact:facebook": "https://www.facebook.com/wedobydr.meddi",
    "healthcare": "hospital",
    "healthcare:speciality": "dermatology",
    "name": "Wedo Skin Clinic Quan 1",
    "operator": "Dr. Meddi",
    "operator:type": "private",
    "phone": "+84 08 988 988 75",
    "website": "https://wedoskinclinic.com/"
  }
},
{
  "type": "node",
  "id": 12315789355,
  "lat": 10.7982784,
  "lon": 106.7384179,
  "tags": {
    "addr:city": "Phường An Phú",
    "addr:district": "Thành phố Thủ Đức",
    "addr:housenumber": "17",
    "addr:postcode": "710000",
    "addr:province": "Thành phố Hồ Chí Minh",
    "addr:street": "Thái Thuận",
    "addr:subdistrict": "Phường An Phú",
    "amenity": "hospital",
    "contact:facebook": "https://www.facebook.com/wedobydr.meddi",
    "description": "Wedo Skin Clinic (wedoskinclinic.com) is led by our Medical Advisor and Director, and excellent Dermatologist Dr. Quỳnh Trang, who has 10 years of experience in dermatology and aesthetic medicine. We specialize in acne treatment, melasma care, skin rejuve",
    "healthcare": "hospital",
    "healthcare:speciality": "dermatology",
    "name": "Wedo Skin Clinic",
    "operator": "Dr. Meddi",
    "operator:type": "private",
    "phone": "+84 07 07 19 66 22",
    "website": "https://wedoskinclinic.com/"
  }
},
{
  "type": "node",
  "id": 12381800064,
  "lat": 10.9585849,
  "lon": 106.8010104,
  "tags": {
    "addr:city": "Thành phố Biên Hòa",
    "addr:housenumber": "D05",
    "addr:postcode": "76000",
    "addr:province": "Tỉnh Đồng Nai",
    "addr:subdistrict": "Phường Bửu Long",
    "amenity": "hospital",
    "healthcare": "hospital",
    "name": "BlueSAO VIỆT NAM"
  }
},
{
  "type": "node",
  "id": 12382305872,
  "lat": 17.2162359,
  "lon": 106.4513607,
  "tags": {
    "amenity": "hospital",
    "healthcare": "hospital"
  }
},
{
  "type": "node",
  "id": 12473186738,
  "lat": 21.1733222,
  "lon": 106.0546691,
  "tags": {
    "addr:city": "Bắc Ninh",
    "addr:district": "Thành phố Bắc Ninh",
    "addr:housenumber": "169",
    "addr:province": "Bac Ninh",
    "addr:street": "Đường Hoàng Hoa Thám",
    "addr:subdistrict": "Phường Võ Cường",
    "amenity": "hospital",
    "healthcare": "hospital",
    "name": "Phòng khám Đa Khoa Quốc Tế Việt Sing - Bắc Ninh"
  }
},
{
  "type": "node",
  "id": 12522128792,
  "lat": 10.7575935,
  "lon": 106.6782304,
  "tags": {
    "addr:city": "Ho Chi Minh City",
    "addr:district": "Quận 5",
    "addr:housenumber": "126",
    "addr:postcode": "72760",
    "addr:province": "Thành phố Hồ Chí Minh",
    "addr:street": "Lê Hồng Phong",
    "addr:subdistrict": "Phường 3",
    "amenity": "hospital",
    "emergency": "no",
    "healthcare": "hospital",
    "healthcare:speciality": "plastic_surgery",
    "mobile": "+84 0903996633",
    "name": "Viện thấm mỹ Bác sĩ Minh",
    "operator": "Bác sĩ Minh",
    "operator:type": "cosmetic_institute",
    "website": "https://thammyvienbacsiminh.vn/"
  }
},
{
  "type": "node",
  "id": 12545857401,
  "lat": 21.3205185,
  "lon": 103.9167157,
  "tags": {
    "amenity": "hospital",
    "healthcare": "hospital",
    "name:en": "Life General Hospital"
  }
},
{
  "type": "node",
  "id": 12595017771,
  "lat": 20.9868669,
  "lon": 105.8399598,
  "tags": {
    "addr:housenumber": "23",
    "addr:street": "Phố Nguyễn Văn Trỗi, quận Thanh Xuân, thành phố Hà Nội",
    "amenity": "hospital",
    "name": "Bệnh viện chuyên khoa Nam học và Hiếm muộn Việt - Bỉ"
  }
},
{
  "type": "node",
  "id": 12597709447,
  "lat": 11.0692339,
  "lon": 106.6589666,
  "tags": {
    "addr:city": "Bến Cát",
    "addr:housenumber": "573",
    "addr:postcode": "820000",
    "addr:province": "Bình Dương",
    "addr:street": "Nguyễn Văn Thành",
    "addr:subdistrict": "KP. Phú Hòa, Phường Hòa Lợi",
    "amenity": "hospital",
    "emergency": "yes",
    "healthcare": "hospital",
    "healthcare:speciality": "clinic",
    "name": "Phòng khám đa khoa Bảo Minh",
    "operator": "NGUYỄN VĂN TUẤN",
    "operator:type": "public"
  }
},
{
  "type": "node",
  "id": 12621772111,
  "lat": 21.0115478,
  "lon": 105.8104566,
  "tags": {
    "addr:housenumber": "532",
    "addr:street": "đường Láng",
    "amenity": "hospital",
    "name": "Bệnh viện mắt Sài Gòn Hà Nội 1"
  }
},
{
  "type": "node",
  "id": 12651700759,
  "lat": 20.9994521,
  "lon": 105.8048434,
  "tags": {
    "addr:housenumber": "35",
    "addr:street": "Phố Lê Văn Thiêm",
    "amenity": "hospital",
    "healthcare": "hospital",
    "name": "Bệnh viện phục hồi chức năng"
  }
},
{
  "type": "node",
  "id": 12718096010,
  "lat": 17.6257685,
  "lon": 106.3003224,
  "tags": {
    "amenity": "hospital",
    "name": "Som trach"
  }
},
{
  "type": "node",
  "id": 12772286102,
  "lat": 21.1548705,
  "lon": 106.1403373,
  "tags": {
    "addr:city": "Bắc Ninh",
    "addr:district": "Thị xã Quế Võ",
    "addr:province": "Bac Ninh",
    "addr:street": "Đường Trần Hưng Đạo",
    "addr:subdistrict": "Phường Phượng Mao",
    "amenity": "hospital",
    "healthcare": "hospital",
    "name": "Trung tâm tiêm chủng VNVC Quế Võ"
  }
},
{
  "type": "node",
  "id": 12825651405,
  "lat": 9.8689503,
  "lon": 106.0540582,
  "tags": {
    "addr:district": "Cầu Kè",
    "addr:province": "Trà Vinh",
    "addr:street": "30 Tháng 4",
    "addr:subdistrict": "TT. Cầu Kè",
    "amenity": "hospital",
    "healthcare": "hospital",
    "name": "Trung tâm Y tế huyện Cầu Kè",
    "phone": "+84 294 3834 019"
  }
},
{
  "type": "way",
  "id": 118673887,
  "nodes": [
    1334198603,
    10778045546,
    1334198660,
    1334198631,
    1334198463,
    10778045572,
    10778045573,
    1334198805,
    1334198717,
    10778045547,
    1334198692,
    1334198596,
    1334198543,
    10778045548,
    10778045549,
    1334198779,
    1334198813,
    1334198726,
    10778045606,
    1334198701,
    6045632720,
    1334198603
  ],
  "tags": {
    "amenity": "hospital",
    "healthcare": "hospital",
    "layer": "-2",
    "name": "Bệnh viện Quân y C17"
  }
},
{
  "type": "way",
  "id": 118916456,
  "nodes": [
    1336760849,
    1336765534,
    1336760870,
    8727775083,
    1336760839,
    1336760783,
    1336777732,
    1336777723,
    1336760849
  ],
  "tags": {
    "addr:city": "Cần Thơ",
    "addr:district": "Ninh Kiều",
    "addr:housenumber": "315",
    "addr:province": "Cần Thơ",
    "addr:street": "Nguyễn Văn Linh",
    "addr:subdistrict": "An Khánh",
    "amenity": "hospital",
    "emergency": "yes",
    "healthcare": "hospital",
    "healthcare:speciality": "general",
    "name": "Bệnh viện Đa khoa Trung ương Cần Thơ",
    "name:en": "Can Tho Central General Hospital"
  }
},
{
  "type": "way",
  "id": 125294543,
  "nodes": [
    1392022050,
    1393358765,
    1393358764,
    4898531103,
    4898531104,
    7087423455,
    4898531105,
    1392022051,
    8805714685,
    1392022053,
    8805714640,
    8805714652,
    8805714643,
    8805714669,
    8805714653,
    8805714641,
    7087423453,
    8805714662,
    8805714646,
    8805714650,
    8805714667,
    8805714672,
    8805714678,
    8805714651,
    8805714656,
    8805714675,
    8806209144,
    8806209149,
    8806209024,
    8806209025,
    1392022028,
    8805714692,
    8805714679,
    8805714661,
    8806209108,
    8806209107,
    8806209140,
    8806209161,
    8806209163,
    8806209162,
    8806209159,
    8806209164,
    8806209166,
    8806209167,
    8806209165,
    1393358711,
    8805714673,
    1393358717,
    1393358722,
    1392022050
  ],
  "tags": {
    "addr:city": "Tp. Hồ Chí Minh",
    "addr:district": "Quận Gò Vấp",
    "addr:housenumber": "786",
    "addr:street": "Nguyễn Kiệm",
    "addr:subdistrict": "Phường 3",
    "amenity": "hospital",
    "emergency": "yes",
    "healthcare": "hospital",
    "healthcare:speciality": "general",
    "name": "Bệnh viện Quân y 175",
    "name:en": "175 Military Hospital",
    "name:zh": "175号医院",
    "operator": "Bộ Quốc phòng",
    "operator:type": "military",
    "website": "http://www.benhvien175.vn/"
  }
},
{
  "type": "way",
  "id": 127299413,
  "nodes": [
    1409433797,
    7969360174,
    7969360128,
    1409433773,
    1409433769,
    9959382403,
    9959382402,
    1409433780,
    1409433781,
    1409433813,
    7969360130,
    11993107616,
    11993107615,
    1409433805,
    11993107659,
    1409433787,
    1409433797
  ],
  "tags": {
    "addr:district": "Bình Thạnh",
    "addr:province": "Hồ Chí Minh",
    "addr:street": "Phan Đăng Lưu",
    "addr:subdistrict": "Phường 7",
    "amenity": "hospital",
    "healthcare": "hospital",
    "name": "Bệnh viện Nhân dân Gia Định",
    "old_name": "Bệnh viện Nguyễn Văn Học",
    "wikidata": "Q115150671",
    "wikipedia": "vi:Bệnh viện Nhân dân Gia Định"
  }
},
{
  "type": "way",
  "id": 127299415,
  "nodes": [
    1409433779,
    1409433771,
    1409433766,
    1409433769,
    9959382403,
    9959382402,
    1409433780,
    1409433781,
    1409433779
  ],
  "tags": {
    "addr:district": "Bình Thạnh",
    "addr:housenumber": "1",
    "addr:province": "Hồ Chí Minh",
    "addr:street": "Đường Nơ Trang Long",
    "addr:subdistrict": "Phường 7",
    "amenity": "hospital",
    "healthcare": "hospital",
    "name": "Bệnh Viện Quốc Tế Columbia Asia",
    "name:en": "Columbia Asia",
    "not:operator:wikidata": "Q5149612"
  }
},
{
  "type": "way",
  "id": 136258986,
  "nodes": [
    1495023279,
    11072898613,
    11072898615,
    11072898616,
    11072898614,
    1495023276,
    1495023268,
    1495023269,
    1495023260,
    1495023258,
    1495023256,
    11072898618,
    11072898620,
    11072898619,
    11072898617,
    1495023257,
    1495023279
  ],
  "tags": {
    "amenity": "hospital",
    "building": "hospital",
    "healthcare": "hospital",
    "name": "Bệnh viện Bệnh Nhiệt đới Trung ương",
    "wheelchair": "yes",
    "wikidata": "Q61132632",
    "wikipedia": "vi:Bệnh viện Bệnh nhiệt đới Trung ương"
  }
},
{
  "type": "way",
  "id": 136259226,
  "nodes": [
    5709996149,
    11215689098,
    11215689097,
    1495025251,
    1495025254,
    8261741630,
    11215689088,
    8261683092,
    8261683091,
    1495025256,
    5709996149
  ],
  "tags": {
    "addr:housenumber": "80",
    "addr:street": "Ngõ 82 Yên Lãng",
    "amenity": "hospital",
    "healthcare": "hospital",
    "name": "Bệnh viện Nội tiết Trung ương"
  }
},
{
  "type": "way",
  "id": 136271003,
  "nodes": [
    1495125269,
    1495125270,
    1495125266,
    1495125265,
    1495125261,
    1495125260,
    1495125259,
    1495125257,
    1495125253,
    1495125252,
    1495125250,
    1495125249,
    1495125244,
    1495125243,
    1495125241,
    1495125242,
    1495125245,
    1495125246,
    1495125247,
    1495125248,
    1495125251,
    1495125254,
    1495125258,
    1495125262,
    1495125263,
    1495125264,
    1495125269
  ],
  "tags": {
    "amenity": "hospital",
    "building": "yes",
    "healthcare": "hospital",
    "name": "Bệnh viện Thể thao Việt Nam"
  }
},
{
  "type": "way",
  "id": 158708608,
  "nodes": [
    1708640387,
    2322640528,
    1708640373,
    10761763039,
    1708640382,
    1708640377,
    1708640387
  ],
  "tags": {
    "addr:city": "Thành phố Hồ Chí Minh",
    "addr:district": "Quận 7",
    "addr:housenumber": "6",
    "addr:street": "Nguyễn Lương Bằng",
    "addr:subdistrict": "Phường Tân Phú",
    "alt_name": "FV Hospital",
    "amenity": "hospital",
    "email": "information@fvhospital.com",
    "emergency": "yes",
    "healthcare": "hospital",
    "healthcare:speciality": "general;psychiatry;orthopaedics;gynaecology;neurology;dentistry;internal;oncology;paediatrics;radiology;surgery",
    "name": "Bệnh Viện Pháp Việt",
    "name:en": "FV Hospital",
    "name:vi": "Bệnh viện Pháp Việt",
    "phone": "+84 28 54 11 33 33",
    "website": "https://www.fvhospital.com/"
  }
},
{
  "type": "way",
  "id": 158971987,
  "nodes": [
    1710814099,
    3663992202,
    1710814096,
    10777654810,
    1708640387,
    2322640528,
    5367379901,
    10777654811,
    1710814099
  ],
  "tags": {
    "amenity": "hospital",
    "emergency": "yes",
    "healthcare": "hospital",
    "name": "Bệnh Viện Tim Tâm Đức"
  }
},
{
  "type": "way",
  "id": 159949212,
  "nodes": [
    442031853,
    8195697320,
    8195697319,
    8195697318,
    8195693714,
    1720181467,
    8195693715,
    8195693716,
    1720181447,
    8195697317,
    1720181456,
    1720181457,
    1720181451,
    442031853
  ],
  "tags": {
    "addr:city": "Hà Nội",
    "addr:district": "Quận Ba Đình",
    "addr:housenumber": "120",
    "addr:province": "Hà Nội",
    "addr:street": "Phố Đốc Ngữ",
    "addr:subdistrict": "Phường Vĩnh Phúc",
    "amenity": "hospital",
    "emergency": "yes",
    "healthcare": "hospital",
    "name": "Bệnh viện Quân y 354",
    "operator": "Bộ Quốc phòng",
    "operator:type": "military"
  }
},
{
  "type": "way",
  "id": 161713483,
  "nodes": [
    1736717249,
    11307720382,
    11307720381,
    1736717238,
    1736717237,
    1736717236,
    1736717239,
    1736717249
  ],
  "tags": {
    "amenity": "hospital",
    "healthcare": "hospital",
    "name": "Bệnh viện Đa khoa huyện Kim Sơn",
    "official_name": "Trung tâm Y tế huyện Kim Sơn"
  }
},
{
  "type": "way",
  "id": 163154685,
  "nodes": [
    1749166385,
    1749166384,
    1749166382,
    1749166383,
    1749166385
  ],
  "tags": {
    "amenity": "hospital",
    "healthcare": "hospital",
    "name": "Trung tâm Y tế huyện Nam Trực"
  }
},
{
  "type": "way",
  "id": 163711327,
  "nodes": [
    1753897153,
    1753897156,
    1753897157,
    1753897161,
    1753897148,
    1753897159,
    1753897151,
    1753897152,
    1753897153
  ],
  "tags": {
    "addr:city": "Hà Nội",
    "addr:district": "Đống Đa",
    "addr:street": "Ngõ 180 Nguyễn Lương Bằng",
    "amenity": "hospital",
    "emergency": "yes",
    "healthcare": "hospital",
    "healthcare:speciality": "general",
    "name": "Bệnh viện Đa khoa Đống Đa",
    "name:en": "Dong Da General Hospital",
    "name:tr": "Dong Da Hastanesi"
  }
},
{
  "type": "way",
  "id": 163764047,
  "nodes": [
    1754442358,
    8712171658,
    1754442359,
    1754442320,
    1754442360,
    1754442361,
    8712128200,
    8712128192,
    8341270809,
    1754442362,
    1754442363,
    1754442365,
    8712171659,
    8712171655,
    1754442358
  ],
  "tags": {
    "addr:city": "Hà Nội",
    "addr:district": "Quận Ba Đình",
    "addr:housenumber": "463",
    "addr:province": "Hà Nội",
    "addr:street": "Đường Hoàng Hoa Thám",
    "addr:subdistrict": "Phường Vĩnh Phúc",
    "amenity": "hospital",
    "healthcare": "hospital",
    "name": "Bệnh viện Phổi Trung ương",
    "name:vi": "Bệnh viện Phổi Trung ương",
    "website": "https://bvptw.org/"
  }
},
{
  "type": "way",
  "id": 166443899,
  "nodes": [
    1778955235,
    1778955232,
    1778955233,
    1815490131,
    1815490130,
    1778955234,
    1815490133,
    1815490132,
    1778955235
  ],
  "tags": {
    "amenity": "hospital",
    "emergency": "yes",
    "healthcare": "hospital",
    "name": "Trung tâm Y tế huyện Châu Phú"
  }
},
{
  "type": "way",
  "id": 166552790,
  "nodes": [
    1780014297,
    1780014298,
    1780014299,
    1780014300,
    1780014297
  ],
  "tags": {
    "amenity": "hospital",
    "building": "hospital",
    "healthcare": "hospital",
    "name": "Bệnh viện Tai-Mũi-Họng TP. Cần Thơ"
  }
},
{
  "type": "way",
  "id": 168085262,
  "nodes": [
    1793939205,
    9287331701,
    9287331702,
    1793939209,
    9287331706,
    9287331705,
    5256964391,
    5256964394,
    5308013151,
    5308013154,
    1793939208,
    1793939205
  ],
  "tags": {
    "addr:place": "768 đường 30/4, phường Hưng Lợi, quận Ninh Kiều, TPCT",
    "amenity": "hospital",
    "healthcare": "hospital",
    "name": "Bệnh viện Y học cổ truyền Cần Thơ",
    "note": "Có 18 khu",
    "opening_hours": "07:00-11:00,13:00-17:00",
    "phone": "07103838050"
  }
},
{
  "type": "way",
  "id": 168085443,
  "nodes": [
    1793941006,
    5256964021,
    5256964020,
    1793941013,
    1793941014,
    1793941005,
    1793941002,
    1793941011,
    1793941019,
    1793941001,
    1793941006
  ],
  "tags": {
    "addr:city": "Cần Thơ",
    "amenity": "hospital",
    "building": "yes",
    "name": "Bệnh viện da liễu"
  }
},
{
  "type": "way",
  "id": 168089152,
  "nodes": [
    1793974887,
    5256998621,
    1793974888,
    1793974890,
    1793974889,
    5177594547,
    1793974887
  ],
  "tags": {
    "amenity": "hospital",
    "emergency": "yes",
    "name": "Bệnh viện Phụ Sản Tp Cần Thơ",
    "name:en": "Bệnh viện Phụ sản Tp Cần Thơ"
  }
},
{
  "type": "way",
  "id": 168111498,
  "nodes": [
    1794191156,
    1794191149,
    5251419293,
    5251419292,
    5251419291,
    5251419290,
    5251419289,
    5251419288,
    5251419287,
    5251419294,
    1794191155,
    5251419295,
    5251419296,
    5251419297,
    5251419298,
    1794191152,
    5251419299,
    5251419300,
    5251419301,
    5251419302,
    5251419303,
    5251419304,
    1794191156
  ],
  "tags": {
    "amenity": "hospital",
    "building": "yes",
    "emergency": "yes",
    "name": "BV Hoàn Mỹ Cửu Long"
  }
},
{
  "type": "way",
  "id": 168524262,
  "nodes": [
    1797764750,
    1039977121,
    1039979536,
    9282826880,
    9285665345,
    9285665415,
    9285665416,
    9285665346,
    9285665333,
    9285665347,
    9282826869,
    9285665459,
    9282826874,
    9285665460,
    9282826866,
    9282826876,
    9282826872,
    1797764757,
    9282826881,
    1797764751,
    9282826867,
    9282826879,
    1797764752,
    9282826871,
    1797764749,
    4378818896,
    4378818898,
    1797764750
  ],
  "tags": {
    "addr:city": "Cần Thơ",
    "amenity": "hospital",
    "emergency": "yes",
    "healthcare": "hospital",
    "name": "Bệnh viện Quân y 121"
  }
},
{
  "type": "way",
  "id": 168662596,
  "nodes": [
    1798890620,
    1798890630,
    1798890628,
    1798890619,
    1798890620
  ],
  "tags": {
    "amenity": "hospital",
    "emergency": "yes",
    "name": "Bệnh viện quân Y"
  }
},
{
  "type": "way",
  "id": 169216612,
  "nodes": [
    1803771985,
    1803771988,
    1803771979,
    1803771981,
    1803771992,
    1803771995,
    1803771990,
    1803771983,
    1803771985
  ],
  "tags": {
    "amenity": "hospital"
  }
},
{
  "type": "way",
  "id": 169405440,
  "nodes": [
    1805722665,
    7403506754,
    1805722664,
    1805722663,
    1805722678,
    7403506745,
    7403506747,
    7403506746,
    7333478139,
    7403521034,
    1805722665
  ],
  "tags": {
    "amenity": "hospital",
    "building": "yes",
    "name": "Bệnh viện Đa khoa Thốt Nốt"
  }
},
{
  "type": "way",
  "id": 169406010,
  "nodes": [
    1805726422,
    1805726424,
    1805726427,
    1805726418,
    1805726422
  ],
  "tags": {
    "amenity": "hospital",
    "emergency": "yes",
    "name": "Bệnh Viện Thốt Nốt"
  }
},
{
  "type": "way",
  "id": 169424212,
  "nodes": [
    1805896914,
    9211454986,
    9211454985,
    9211455000,
    1805896788,
    9193119592,
    1805896780,
    9193119591,
    1805896816,
    9211454993,
    9211454994,
    1805896914
  ],
  "tags": {
    "amenity": "hospital",
    "healthcare": "hospital",
    "name": "Trung tâm Y tế huyện Châu Thành"
  }
},
{
  "type": "way",
  "id": 169958168,
  "nodes": [
    1811051054,
    1811051057,
    1811051061,
    11297207570,
    11297207571,
    11297207572,
    11297207575,
    11297207577,
    11297207576,
    11297207574,
    11297207573,
    1811051059,
    1811051054
  ],
  "tags": {
    "amenity": "hospital",
    "healthcare": "hospital",
    "name": "Bệnh viện Đa khoa Đồng Tháp"
  }
},
{
  "type": "way",
  "id": 170066863,
  "nodes": [
    1812188015,
    1812188013,
    1812188014,
    1812188012,
    1812188015
  ],
  "tags": {
    "amenity": "hospital",
    "name": "Bệnh viện Quân-Dân Y tỉnh Đồng Tháp"
  }
},
{
  "type": "way",
  "id": 170066944,
  "nodes": [
    1812188533,
    1812188534,
    1812188532,
    1812188531,
    1812188533
  ],
  "tags": {
    "amenity": "hospital",
    "name": "Bệnh viện Điều dưỡng và phục hồi chức năng Đồng Tháp"
  }
},
{
  "type": "way",
  "id": 170073126,
  "nodes": [
    1812235734,
    1812235742,
    1812235741,
    1812235717,
    1812235734
  ],
  "tags": {
    "amenity": "hospital",
    "emergency": "yes",
    "name": "Bệnh viện Nhật Tân"
  }
},
{
  "type": "way",
  "id": 170198078,
  "nodes": [
    1813548071,
    1813548072,
    1813548074,
    9194794154,
    9194794153,
    1813548073,
    1813548071
  ],
  "tags": {
    "amenity": "hospital",
    "emergency": "yes",
    "healthcare": "hospital",
    "name": "Trung tâm Y tế huyện An Phú"
  }
},
{
  "type": "way",
  "id": 170402287,
  "nodes": [
    1815445576,
    1815445574,
    1815445577,
    1815445572,
    1815445576
  ],
  "tags": {
    "addr:street": "30",
    "amenity": "hospital",
    "name": "Bệnh viện Domedic",
    "name:en": "Bệnh viện tam tri",
    "name:vi": "Bệnh viện tâm trí"
  }
},
{
  "type": "way",
  "id": 183815633,
  "nodes": [
    1942362318,
    1942362310,
    1942362309,
    1942362315,
    1942362318
  ],
  "tags": {
    "addr:housenumber": "136",
    "addr:street": "Nguyễn Thị Định",
    "amenity": "hospital",
    "healthcare": "hospital",
    "name": "Bệnh viện Lao và Bệnh phổi Đắk Lắk"
  }
},
{
  "type": "way",
  "id": 183815634,
  "nodes": [
    1942362333,
    1942362331,
    1942362315,
    1942362318,
    1942362333
  ],
  "tags": {
    "addr:housenumber": "134",
    "addr:street": "Nguyễn Thị Định",
    "amenity": "hospital",
    "healthcare": "hospital",
    "name": "Bệnh viện Tâm thần tỉnh Đắk Lắk"
  }
},
{
  "type": "way",
  "id": 187895176,
  "nodes": [
    1985346255,
    2379911826,
    7501164331,
    7501164328,
    7501164329,
    7501164330,
    1985346064,
    7501164373,
    1985346105,
    1985346241,
    7501164302,
    1985346277,
    7501164296,
    7501164297,
    7501164298,
    7501164299,
    7501164300,
    7501164301,
    1985346255
  ],
  "tags": {
    "addr:city": "Ho Chi Minh City",
    "addr:district": "1",
    "addr:housenumber": "14",
    "addr:street": "Lý Tự Trọng",
    "addr:subdistrict": "Bến Nghé",
    "amenity": "hospital",
    "description": "One of the main hospital in HCMC specialized in treating children from 0-16",
    "emergency": "yes",
    "healthcare": "hospital",
    "healthcare:speciality": "general",
    "name": "Bệnh viện Nhi đồng 2",
    "name:en": "Children's Hospital No 2",
    "name:vi": "Bệnh viện Nhi đồng 2",
    "name:zh": "二号儿童医院",
    "old_name": "Hôpital Grall;Bệnh viện Đồn Đất",
    "old_name:en": "Grall Hospital",
    "old_name:fr": "Hôpital Grall",
    "old_name:vi": "Bệnh viện Grall",
    "phone": "+84 28 3829 5723",
    "start_date": "1870s",
    "website": "http://www.benhviennhi.org.vn",
    "wheelchair": "yes",
    "wikidata": "Q30293454",
    "wikimedia_commons": "Category:Children's Hospital 2",
    "wikipedia": "vi:Bệnh viện Nhi đồng 2"
  }
},
{
  "type": "way",
  "id": 187949834,
  "nodes": [
    1985832561,
    7503285427,
    7503285426,
    1985832668,
    1985832679,
    1985832617,
    1985832561
  ],
  "tags": {
    "addr:housenumber": "125",
    "addr:postcode": "71006",
    "addr:street": "Lê Lợi",
    "amenity": "hospital",
    "emergency": "yes",
    "healthcare": "hospital",
    "name": "Bệnh viện Đa khoa Sài Gòn",
    "name:cja-Latn": "Sang ruak Baigaon",
    "name:cjm-Latn": "Sang ruak Baigaon",
    "name:de": "Krankenhausgelände",
    "name:en": "Saigon General Hospital",
    "name:id": "Rumah Sakit Umum Saigon",
    "name:zh": "西贡多科医院",
    "wikidata": "Q10743499",
    "wikimedia_commons": "Category:Saigon General Hospital",
    "wikipedia": "vi:Bệnh viện Đa khoa Sài Gòn"
  }
},
{
  "type": "way",
  "id": 187949844,
  "nodes": [
    1985832671,
    1985832600,
    7558600140,
    7558600141,
    1985832616,
    1985832663,
    1985832545,
    1985832573,
    7558600150,
    1985832671
  ],
  "tags": {
    "amenity": "hospital",
    "emergency": "yes",
    "healthcare": "hospital",
    "name": "Bệnh viện Quận 4",
    "name:en": "District 4 Hospital",
    "name:fr": "Hôpital du 4è arrondissement",
    "name:id": "Rumah Sakit Distrik 4",
    "name:ms": "Rumah Sehat Distrik 4",
    "name:ru": "больница Района 4",
    "name:zh": "第四郡医院"
  }
},
{
  "type": "way",
  "id": 189017078,
  "nodes": [
    1996655771,
    9944079487,
    9944079440,
    1996654587,
    1996654330,
    9944079433,
    6736826567,
    1996655771
  ],
  "tags": {
    "addr:street": "Đường Hồng Bàng",
    "amenity": "hospital",
    "emergency": "yes",
    "healthcare": "hospital",
    "name": "Bệnh viện Hùng Vương",
    "name:en": "Hung Vuong Hospital",
    "name:zh": "雄王医院",
    "wikidata": "Q30293462",
    "wikipedia": "vi:Bệnh viện Hùng Vương"
  }
},
{
  "type": "way",
  "id": 189067519,
  "nodes": [
    1997154634,
    1997154402,
    9944079419,
    1997154383,
    1997154827,
    1997154634
  ],
  "tags": {
    "addr:district": "Quận 5",
    "addr:housenumber": "9",
    "addr:province": "Thành phố Hồ Chí Minh",
    "addr:street": "Yết Kiêu",
    "addr:subdistrict": "Phường 9",
    "amenity": "hospital",
    "emergency": "yes",
    "healthcare": "hospital",
    "name": "Bệnh viện 30 Tháng 4"
  }
},
{
  "type": "way",
  "id": 189067543,
  "nodes": [
    1997154226,
    1997154708,
    1997154242,
    1997154583,
    9958793802,
    9958793799,
    9958793803,
    9958793800,
    9958793808,
    9958793804,
    9958793798,
    9958793797,
    1997154410,
    9944079458,
    1997154613,
    1997154587,
    9958828717,
    9958828730,
    1997154534,
    9944079428,
    1997154226
  ],
  "tags": {
    "addr:city": "Ho Chi Minh City",
    "addr:district": "5",
    "addr:housenumber": "146",
    "addr:street": "Đường An Bình",
    "addr:subdistrict": "7",
    "amenity": "hospital",
    "emergency": "yes",
    "healthcare": "hospital",
    "name": "Bệnh viện An Bình",
    "name:en": "An Binh Hospital",
    "old_name": "Bệnh viện Triều Châu",
    "wikidata": "Q97167745",
    "wikipedia": "vi:Bệnh viện An Bình"
  }
},
{
  "type": "way",
  "id": 189067554,
  "nodes": [
    1997154628,
    1997154826,
    1997154446,
    1997154789,
    1997154650,
    9960664273,
    1997154628
  ],
  "tags": {
    "amenity": "hospital",
    "emergency": "yes",
    "healthcare": "hospital",
    "name": "Bệnh viện Truyền máu Huyết học"
  }
},
{
  "type": "way",
  "id": 189067558,
  "nodes": [
    1997154714,
    4515465846,
    4515465848,
    4515465851,
    4515465852,
    1997154152,
    1997154717,
    9944079420,
    1997154554,
    2685998306,
    2685998305,
    1997154536,
    2685998304,
    1997154556,
    1997154349,
    1997154124,
    1997154560,
    2685998303,
    2685998302,
    1997154266,
    9944079450,
    9944079441,
    9944079442,
    9944079430,
    9944079429,
    9944079471,
    9944079507,
    9944079417,
    9944079479,
    9958828872,
    9958828873,
    1997154714
  ],
  "tags": {
    "addr:city": "Ho Chi Minh City",
    "addr:district": "5",
    "addr:housenumber": "764",
    "addr:street": "Võ Văn Kiệt",
    "addr:subdistrict": "1",
    "amenity": "hospital",
    "emergency": "yes",
    "healthcare": "hospital",
    "healthcare:speciality": "epidemics",
    "name": "Bệnh viện Bệnh Nhiệt đới",
    "name:en": "Hospital for Tropical Diseases",
    "old_name": "Bệnh viện Chợ Quán;Bệnh viện Ngô Quyền",
    "old_name:fr": "Hôpital de Cho-Quan",
    "website": "https://www.bvbnd.vn/",
    "wikidata": "Q61130729",
    "wikipedia": "vi:Bệnh viện Bệnh Nhiệt đới (Thành phố Hồ Chí Minh)"
  }
},
{
  "type": "way",
  "id": 189067574,
  "nodes": [
    1997154482,
    1997154826,
    1997154628,
    9960664273,
    1997154650,
    9960664274,
    1997154574,
    1997154351,
    11990290451,
    11990290448,
    1997154442,
    9014655481,
    1997154505,
    1997154482
  ],
  "tags": {
    "amenity": "hospital",
    "healthcare": "hospital",
    "name": "Bệnh viện Phạm Ngọc Thạch",
    "name:en": "Pham Ngoc Thach Hospital",
    "name:id": "Rumah Sakit Pham Ngoc Thach",
    "name:zh": "范玉石医院",
    "old_name": "Hôpital Drouhet;Bệnh viện Hồng Bàng",
    "old_name:fr": "Hôpital Drouhet",
    "wikidata": "Q30293465",
    "wikimedia_commons": "Category:Pham Ngoc Thach Hospital, Ho Chi Minh City",
    "wikipedia": "vi:Bệnh viện Phạm Ngọc Thạch (Thành phố Hồ Chí Minh)"
  }
},
{
  "type": "way",
  "id": 189067578,
  "nodes": [
    9941456307,
    4616059067,
    1997154837,
    1997154395,
    1997154214,
    9941456266,
    9941456307
  ],
  "tags": {
    "amenity": "hospital",
    "emergency": "yes",
    "healthcare": "hospital",
    "name": "Bệnh viện Đại học Y Dược TP.HCM",
    "name:en": "University Hospital"
  }
},
{
  "type": "way",
  "id": 189067626,
  "nodes": [
    1997154820,
    9959382358,
    1997154167,
    1997154535,
    1997154626,
    1997154235,
    1997154517,
    9944079506,
    9944079422,
    1997154607,
    1997154272,
    1997154624,
    1997154298,
    9959382356,
    9959382357,
    1997154820
  ],
  "tags": {
    "addr:city": "Ho Chi Minh City",
    "addr:district": "5",
    "addr:housenumber": "314",
    "addr:street": "Đường Nguyễn Trãi",
    "addr:subdistrict": "8",
    "amenity": "hospital",
    "emergency": "yes",
    "healthcare": "hospital",
    "name": "Bệnh viện Nguyễn Trãi",
    "old_name": "Bệnh viện Phúc Kiến;Bệnh viện Phước Kiến",
    "wikidata": "Q32248824",
    "wikimedia_commons": "Category:Nguyen Trai Hospital",
    "wikipedia": "vi:Bệnh viện Nguyễn Trãi"
  }
},